ID,Price,Currency_ID,Area,District Name,District ID,Address,Urban Name,Urban ID,Condition ID,Room Type ID,Bedroom Type ID,Bathroom Type ID,Floor,Total Floors,Balconies,Balcony Area,Owner Name,User ID,User Type,User Statements Count,Is VIP,Is VIP Plus,Is Super VIP,Views,Published,Last Updated,Status,Longitude,Latitude
19770766,101680,2,65.6 m²,ვაკე-საბურთალო,4,კამანის ქ. ,საბურთალო,47,,2,1,1,6,7,,None m²,სბი ჰოლდინგი,189236,physical,2,False,False,True,627,2024-11-19 15:41:47,2025-03-12 11:00:34,3,44.743444,41.730094
20624375,61000,2,57 m²,ვაკე-საბურთალო,4,ასმათის ქ. ,დიდი დიღომი,29,5,2,1,2,5,11,,None m²,კახა,2420618,physical,1,False,False,True,82,2025-02-27 20:28:12,2025-03-12 10:57:33,2,44.752108,41.785057
20099007,71500,2,50 m²,ვაკე-საბურთალო,4,გიორგი ბრწყინვალეს ქ. 54,დიდი დიღომი,29,1,2,1,1,14,16,1,6 m²,მაიკო,2212286,physical,1,False,False,True,800,2024-12-25 22:14:16,2025-03-12 10:43:31,2,44.759855,41.788711
20711313,115000,2,55 m²,ვაკე-საბურთალო,4,ჩიქოვანი ს. ქ. 7,საბურთალო,47,1,2,1,1,2,10,1,5 m²,Tako,5334389,physical,1,False,False,True,409,2025-03-08 15:03:12,2025-03-12 11:00:34,2,44.764054,41.715019
18539147,80109,2,62.1 m²,ისანი-სამგორი,5,ნადიკვარის დას; 3-ქ 3,ორთაჭალა,57,5,2,1,1,5,5,1,9.5 m²,ნიკა (მეპატრონე),1736436,physical,1,False,False,True,3011,2024-06-11 21:09:18,2025-03-12 11:00:34,2,44.816355,41.679061
20067235,63000,2,41.03 m²,ვაკე-საბურთალო,4,ასმათის ქ. 30,დიდი დიღომი,29,1,2,1,1,1,5,1,2 m²,ილია,2067657,physical,1,False,False,True,2252,2024-12-21 22:02:04,2025-03-12 10:24:11,2,44.752108,41.785057
20743644,54700,2,59 m²,ვაკე-საბურთალო,4,მირიანაშვილი ს. ქ. 80,დიდი დიღომი,29,1,2,1,1,2,2,,None m²,თორნიკე ჭაბუკიანი,3194384,physical,1,False,False,True,0,2025-03-12 10:49:08,2025-03-12 10:49:10,2,44.743672,41.797033
20598827,46866,2,64.2 m²,დიდუბე-ჩუღურეთი,3,ნ. ხოშარაულის ქ. 29,დიდუბე,23,,2,1,1,12,30,,None m²,Givi,3795374,physical,3,False,False,True,311,2025-02-25 17:26:17,2025-03-12 10:00:18,3,44.779703,41.732513
20743549,97700,2,61.4 m²,ვაკე-საბურთალო,4,მარშალი გელოვანი გამზირი ,საბურთალო,47,1,3,2,1,6,13,2,8 m²,გურამი,2389628,physical,3,False,False,True,0,2025-03-12 10:02:17,2025-03-12 10:02:20,2,44.769566,41.752838
20743490,82000,2,80.8 m²,ვაკე-საბურთალო,4,ხატაეთის ქ. ,დიდი დიღომი,29,,3,,1,8,10,1,12 m²,დავითი,3165228,physical,4,False,False,True,0,2025-03-12 08:06:17,2025-03-12 10:10:44,2,44.756537,41.780005
20246193,84320,2,54.4 m²,ვაკე-საბურთალო,4,ცაცხვების ქუჩა 4,ლისი,43,7,2,1,1,3,4,1,4.5 m²,ზურა,926260,physical,4,False,False,True,1690,2025-01-21 01:24:42,2025-03-12 00:00:21,2,44.74863,41.739012
19323877,80000,2,62.2 m²,გლდანი-ნაძალადევი,1,გმირი კურსანტების ქ. ,გლდანი,2,3,3,2,1,9,12,1,25 m²,A,5505598,physical,1,False,False,True,608,2024-09-28 17:40:10,2025-03-11 21:08:02,2,44.808904,41.801742
20743589,125000,2,61 m²,ვაკე-საბურთალო,4,ვაჟა-ფშაველას გამზირი 30ბ,საბურთალო,47,1,3,2,1,2,12,1,5 m²,მაია,4586855,physical,1,False,False,True,0,2025-03-12 10:29:01,2025-03-12 10:33:25,2,44.751686,41.725849
20373262,66000,2,48 m²,ვაკე-საბურთალო,4,არჩილ მეფის ქ. ,დიდი დიღომი,29,1,3,2,,5,12,,None m²,M-home,3820518,physical,3,False,False,True,593,2025-02-03 22:00:30,2025-03-11 20:48:42,2,44.740056,41.792456
19952500,71000,2,67 m²,ვაკე-საბურთალო,4,დიღმის ჭალა ,დიღომი 1-9,30,5,3,2,1,4,8,1,17 m²,საბა,2226574,physical,1,False,False,True,1328,2024-12-09 16:26:10,2025-03-12 00:00:14,2,44.78691,41.797339
19313298,95000,2,58.9 m²,ძველი თბილისი,6,ბ. კალანდაძის ქ. 15,ორთაჭალა,57,,2,1,,12,16,,None m²,თამარი,4801194,physical,3,False,False,True,192,2024-09-27 13:14:00,2025-03-12 00:00:14,2,44.82188,41.681069
19743949,120000,2,98 m²,დიდუბე-ჩუღურეთი,3,ნ. ხოშარაულის ქ. 47,დიდუბე,23,5,4,3,1,8,16,2,8 m²,გიორგი,4685068,physical,1,False,False,True,1184,2024-11-15 22:15:43,2025-03-11 19:00:44,3,44.778808,41.734946
20591771,44000,2,57 m²,დიდუბე-ჩუღურეთი,3,ნ. ხოშარაულის ქ. 29,დიდუბე,23,5,2,1,,4,29,,None m²,გიორგი,4014027,physical,2,False,False,True,842,2025-02-25 12:41:17,2025-03-11 20:22:07,3,44.779703,41.732513
20742763,69000,2,58 m²,ისანი-სამგორი,5,ჯავახეთის ქ. 10,ვარკეთილი,52,3,2,1,2,13,18,1,4 m²,მარიამი,4110831,physical,1,False,False,True,17,2025-03-11 20:24:02,2025-03-11 20:24:04,2,44.870799,41.683614
20716910,66000,2,55.5 m²,გლდანი-ნაძალადევი,1,მარატ ნოზაძის ქუჩა 12,გლდანი,2,7,2,1,1,12,12,1,8 m²,ინგა,4253348,physical,1,False,False,True,332,2025-03-09 21:05:56,2025-03-11 18:19:40,2,44.772859,41.800078
20742610,123000,2,54 m²,ვაკე-საბურთალო,4,მიცკევიჩის ქ. 25ბ,საბურთალო,47,1,2,1,1,9,12,1,5 m²,ggg,331757,physical,1,False,False,True,35,2025-03-11 19:36:57,2025-03-11 19:46:19,2,44.766384,41.724575
19381659,238000,1,78 m²,ისანი-სამგორი,5,ვაზისუბნის დას 2,ვაზისუბანი,51,8,3,2,1,5,16,,None m²,tamar,5499635,physical,2,False,False,True,821,2024-10-06 06:43:15,2025-03-11 17:01:04,2,44.860239,41.693133
20708380,53500,2,74 m²,დიდუბე-ჩუღურეთი,3,ნ. ხოშარაულის ქ. 29,დიდუბე,23,7,2,1,1,2,29,,None m²,გიორგი,4014027,physical,2,False,False,True,289,2025-03-07 19:23:34,2025-03-11 15:24:43,3,44.774984,41.734043
20331584,74000,2,47.5 m²,ვაკე-საბურთალო,4,ამბერკ ტაბიძის ქუჩა 41,ლისი,43,1,2,1,1,10,12,,None m²,გია,4777855,physical,1,False,False,True,1410,2025-01-30 11:10:09,2025-03-11 15:37:05,2,44.723013,41.736545
20602108,69000,2,50 m²,ვაკე-საბურთალო,4,ვეფხისტყაოსნის ქ. 32,დიდი დიღომი,29,,2,1,1,10,12,1,3 m²,ნათია,5410365,physical,2,False,False,True,133,2025-02-26 09:47:07,2025-03-11 15:08:04,2,44.757697,41.786818
20504507,76700,2,59 m²,ძველი თბილისი,6,ვ. გორგასალის ქ. 105,ორთაჭალა,57,5,2,1,1,18,19,1,5 m²,ზურაბი,4630794,physical,2,False,False,True,541,2025-02-17 12:14:34,2025-03-11 14:52:28,2,44.822615,41.6838
20129528,85000,2,38.1 m²,ძველი თბილისი,6,კრწანისის ქ. 14,კრწანისი,65,1,1,,1,10,11,1,3 m²,Eldari,2342764,physical,3,False,False,True,1163,2025-01-04 09:50:36,2025-03-12 09:00:19,2,44.822057,41.674993
18632248,72000,2,48 m²,გლდანი-ნაძალადევი,1,"შეშელიძის ქუჩა #1-109, 2-110 18",გლდანი,2,,1,,1,5,16,,None m²,გიორგი,796207,physical,2,False,False,True,566,2024-06-25 13:24:14,2025-03-11 14:14:10,3,44.819395,41.795447
20388016,129000,2,71.52 m²,ვაკე-საბურთალო,4,აბულაძე ი. ქ. 25,საბურთალო,47,,3,2,,4,7,1,12 m²,ფიქრია,3985220,physical,4,False,False,True,1243,2025-02-05 12:53:02,2025-03-11 13:02:17,2,44.741973,41.732793
20717671,83000,2,54 m²,ისანი-სამგორი,5,ლერწმის ქ. 2,ისანი,53,1,2,1,1,11,12,1,5 m²,გეგე,4354058,physical,1,False,False,True,199,2025-03-10 11:04:05,2025-03-11 12:29:22,2,44.846518,41.67323
20694578,79200,2,49.5 m²,ძველი თბილისი,6,სულიკო თორთლაძის ქ.,ორთაჭალა,57,7,2,1,1,15,15,1,5 m²,თიკა,4853666,physical,1,False,False,True,148,2025-03-06 19:20:19,2025-03-11 20:00:19,2,44.819105,41.681237
20734309,74500,2,51 m²,ვაკე-საბურთალო,4,ი. პეტრიწის ქ. ,დიდი დიღომი,29,1,2,1,1,5,9,1,4 m²,თამარი,5615442,physical,1,False,False,True,75,2025-03-11 13:50:29,2025-03-11 13:54:21,2,44.759945,41.792432
19714453,127000,2,53.15 m²,ვაკე-საბურთალო,4,ს. ეულის ქ. 5,საბურთალო,47,1,2,,1,14,21,1,4 m²,ირინა,3575291,physical,2,False,False,True,1027,2024-11-13 15:40:29,2025-03-11 13:13:38,2,44.717508,41.722664
20362315,75000,2,59.6 m²,ვაკე-საბურთალო,4,მირიან მეფის ქ. 18,დიდი დიღომი,29,1,3,2,1,3,5,1,5 m²,ილია,993568,physical,3,False,False,True,1661,2025-02-03 11:08:06,2025-03-11 12:01:54,2,44.766632,41.786839
20492374,93000,2,61 m²,ძველი თბილისი,6,გ. ნიკოლაძის ქ. 15,ორთაჭალა,57,,2,,1,4,9,,None m²,თამარი,4880344,physical,2,False,False,True,389,2025-02-14 19:44:37,2025-03-11 12:01:06,2,44.831816,41.676679
20730763,57000,2,37.5 m²,ვაკე-საბურთალო,4,ა. პოლიტკოვსკაიას ქუჩა (ჯიქია) 40ა,საბურთალო,47,5,1,1,1,9,12,,None m²,Lili,5411987,physical,1,False,False,True,145,2025-03-11 08:43:04,2025-03-11 08:43:06,2,44.704663,41.721051
20495365,78000,2,39.9 m²,დიდუბე-ჩუღურეთი,3,მირცხულავას ქუჩა ,დიდუბე,23,1,2,1,1,12,25,1,4 m²,ნატო,3276466,physical,1,False,False,True,526,2025-02-15 13:51:46,2025-03-11 00:00:29,2,44.774069,41.745823
19115420,88000,2,64 m²,ვაკე-საბურთალო,4,პეტრე იბერის ქ,დიდი დიღომი,29,,3,2,1,3,11,,7 m²,კოტე,773299,physical,1,False,False,True,367,2024-09-02 18:05:30,2025-03-11 11:54:51,2,44.755322,41.79198
20481907,117000,2,81 m²,ვაკე-საბურთალო,4,აღმაშენებლის ხეივანი ,დიდი დიღომი,29,1,3,2,1,5,12,2,10 m²,გიორგი,4378373,physical,2,False,False,True,208,2025-02-14 00:48:55,2025-03-10 20:50:20,2,44.769815,41.793169
18595147,55990,2,50.9 m²,ვაკე-საბურთალო,4,მირიან მეფის ქ. 45,დიდი დიღომი,29,5,1,,1,4,15,1,8 m²,კობა,3158063,physical,1,False,False,True,3270,2024-06-19 23:01:02,2025-03-10 11:23:55,3,44.766632,41.786839
20505750,87000,2,45 m²,გლდანი-ნაძალადევი,1,ქერჩის ქ. 34,გლდანი,2,1,2,1,1,12,16,1,4 m²,ნათია,5399628,physical,1,False,False,True,256,2025-02-17 13:06:12,2025-03-10 10:42:16,2,44.80777,41.794012
20708887,111000,2,55 m²,ვაკე-საბურთალო,4,შავიშვილის ქუჩა 1,საბურთალო,47,1,2,1,,4,16,,None m²,Natia,4014468,physical,1,False,False,True,157,2025-03-07 22:33:06,2025-03-07 22:33:08,2,44.724114,41.719567
20485115,39000,2,41 m²,ვაკე-საბურთალო,4,დიდი დიღომი - III მ/რ ,დიდი დიღომი,29,7,1,1,1,4,13,1,4 m²,ირაკლი,3911171,physical,5,False,False,True,530,2025-02-14 13:33:59,2025-03-05 14:47:10,2,44.741604,41.788745
20247854,42500,2,50 m²,ისანი-სამგორი,5,ბერი გაბრიელ სალოსის გამზ. 181ა,ისანი,53,6,1,,1,9,12,,8 m²,გიორგი,800964,physical,1,False,False,True,2069,2025-01-21 12:35:37,2025-03-10 12:06:56,3,44.865013,41.656109
20380283,76500,2,85 m²,ვაკე-საბურთალო,4,დიდი დიღომი - III მ/რ 29,დიდი დიღომი,29,3,3,2,2,2,13,1,10.2 m²,ალექსი,3901737,physical,1,False,False,True,103,2025-02-04 16:11:31,2025-03-07 17:37:56,2,44.753942,41.794856
20671968,66000,2,53.5 m²,ვაკე-საბურთალო,4,მირიან მეფის ქ. ,დიდი დიღომი,29,1,2,1,1,3,5,,None m²,ილია,993568,physical,3,False,False,True,861,2025-03-05 12:48:18,2025-03-11 12:02:00,2,44.766632,41.786839
20704713,40500,2,36 m²,ვაკე-საბურთალო,4,ბობ უოლშის ქუჩა 40,დიღომი 1-9,30,5,1,1,1,3,9,1,7 m²,სალომე,2355527,physical,2,False,False,True,133,2025-03-07 17:00:21,2025-03-07 17:04:53,2,44.781675,41.79807
20624320,70500,2,71 m²,ვაკე-საბურთალო,4,ასმათის ქ. 23,დიდი დიღომი,29,7,3,2,2,4,11,,None m²,გიორგი,4325606,physical,1,False,False,False,288,2025-02-27 20:13:34,2025-03-11 11:26:47,2,44.752108,41.785057
20174346,93500,2,85 m²,ძველი თბილისი,6,ვ. გორგასალის ქ. 105,ორთაჭალა,57,5,3,2,1,8,19,2,8 m²,ზაქრო,4814739,physical,1,False,False,True,1096,2025-01-11 15:08:20,2025-03-05 14:02:44,2,44.840507,41.670867
20489089,107000,2,66 m²,ვაკე-საბურთალო,4,ს. ეულის ქ. ,საბურთალო,47,1,3,2,1,9,9,2,6 m²,ი,3911171,physical,5,False,False,True,619,2025-02-14 16:39:56,2025-03-05 14:41:27,2,44.716178,41.723689
20656302,105000,2,56 m²,ვაკე-საბურთალო,4,წმ. მოწამე ვასილისკოს ქ. 1,საბურთალო,47,1,2,1,1,5,12,2,3 m²,ანა,3603599,physical,1,False,False,True,210,2025-03-03 23:08:51,2025-03-03 23:13:07,2,44.705791,41.720079
20312433,71990,2,62.6 m²,ვაკე-საბურთალო,4,დემეტრე თავდადებულის ქუჩა 40,დიდი დიღომი,29,1,2,1,1,5,16,1,7.6 m²,Saba,4041370,physical,1,False,False,True,263,2025-01-28 14:16:22,2025-03-05 13:14:04,2,44.749515,41.795669
18761255,63500,2,48.59 m²,ვაკე-საბურთალო,4,არჩილ მეფის ქ. ,დიდი დიღომი,29,1,2,1,1,7,11,1,4.5 m²,თემური,2394515,physical,1,False,False,True,2596,2024-07-11 21:49:14,2025-03-02 14:29:17,2,44.740056,41.792456
20671678,94000,2,74 m²,ვაკე-საბურთალო,4,შერმადინის ქ. 21,დიდი დიღომი,29,,4,3,1,7,8,,None m²,ნინი,5611141,physical,4,False,True,False,52,2025-03-05 12:36:09,2025-03-12 10:42:44,2,44.759861,41.77922
20466226,88000,2,66 m²,ვაკე-საბურთალო,4,დავარის ქ. 24,დიდი დიღომი,29,,3,2,1,6,12,1,6 m²,ლაშა,5450638,physical,2,False,True,False,169,2025-02-12 18:04:55,2025-03-12 10:31:32,2,44.756651,41.785814
20231833,89800,2,42.8 m²,ვაკე-საბურთალო,4,ლეო კვაჭაძის ქუჩა 19,ლისი,43,1,2,1,1,1,4,,None m²,სერგო,4843796,physical,2,False,True,False,332,2025-01-18 23:41:34,2025-03-12 11:00:34,2,44.721373,41.744268
20589962,118000,2,53 m²,ვაკე-საბურთალო,4,ა. გახოკიძის ქ. 6,საბურთალო,47,1,2,1,1,7,10,1,5 m²,თამუნა,4358141,physical,2,False,True,False,100,2025-02-25 10:38:14,2025-03-12 10:39:27,2,44.769386,41.732415
20670522,68000,2,50.3 m²,ვაკე-საბურთალო,4,ნესტან-დარეჯანის ქ. 20,დიდი დიღომი,29,1,2,1,1,3,6,,None m²,ნინი,5611141,physical,4,False,True,False,83,2025-03-05 11:44:43,2025-03-12 10:42:36,2,44.749428,41.78219
20733990,63825,2,55.5 m²,ძველი თბილისი,6,ვახტანგ გორგასლის ქუჩა 40,კრწანისი,65,7,1,,1,8,19,,None m²,თინა,316280,physical,2,False,True,False,15,2025-03-11 13:37:37,2025-03-12 10:09:10,2,44.757353,41.763719
20305527,110000,2,62.83 m²,ვაკე-საბურთალო,4,შარტავას ქ. ,საბურთალო,47,1,2,1,1,3,19,1,7 m²,ana,5584947,physical,4,False,True,False,1305,2025-01-27 17:02:33,2025-03-12 10:11:45,2,44.772387,41.728121
20730851,86000,2,72.14 m²,ვაკე-საბურთალო,4,მირიან მეფის ქ. ,დიდი დიღომი,29,1,2,1,1,13,19,1,12 m²,ანო,5432584,physical,4,False,True,False,8,2025-03-11 10:24:18,2025-03-12 10:09:10,2,44.766632,41.786839
20363384,110000,2,84.6 m²,ვაკე-საბურთალო,4,ლ. გოთუას ქ. 26,საბურთალო,47,6,3,2,1,10,14,,None m²,სერგი,3498441,physical,4,False,True,False,257,2025-02-03 12:22:50,2025-03-12 10:00:18,2,44.773167,41.729957
19316680,62000,2,50 m²,ვაკე-საბურთალო,4,ასი ათასი მოწამის ქუჩა ,დიდი დიღომი,29,,2,1,1,7,8,,None m²,ლელა,2159765,physical,1,False,True,False,266,2024-09-27 16:23:53,2025-03-12 10:01:12,2,44.757637,41.797482
20679405,98000,2,104 m²,ვაკე-საბურთალო,4,კალანდაძის ქუჩა ,საბურთალო,47,6,4,3,2,12,14,,8 m²,გიორგი,4622049,physical,4,False,True,False,160,2025-03-05 17:43:52,2025-03-12 09:42:48,2,44.770691,41.726205
19328002,123900,2,93.38 m²,ვაკე-საბურთალო,4,ბობ უოლშის ქუჩა 34,დიღომი 1-9,30,1,3,2,2,8,9,2,8 m²,Iryna,5506598,physical,1,False,False,True,1776,2024-09-30 11:09:36,2025-03-03 15:39:33,2,44.781719,41.796113
20691818,63000,2,48 m²,ვაკე-საბურთალო,4,ნინო აბაშიძე-ორბელიანის ქუჩა 2,დიდი დიღომი,29,1,2,1,,9,12,1,4 m²,შავლეგი,4127342,physical,1,False,True,False,91,2025-03-06 17:21:30,2025-03-12 11:04:50,2,44.772653,41.688188
20713512,64000,2,46 m²,ვაკე-საბურთალო,4,აბაშიძე-ორბელიანი ნ. ქ. ,დიდი დიღომი,29,1,2,1,1,5,12,,None m²,მალხაზი,3438220,physical,1,False,True,False,114,2025-03-08 22:44:10,2025-03-12 09:35:34,2,44.750114,41.78418
20215075,85000,2,54.3 m²,ვაკე-საბურთალო,4,გაზაფხულის ქ. 23,საბურთალო,47,1,2,1,1,1,10,,None m²,სერგი,3498441,physical,4,False,True,False,1753,2025-01-16 18:52:12,2025-03-12 10:00:18,2,44.741714,41.731739
20606707,93000,2,73 m²,ვაკე-საბურთალო,4,შერმადინის ქ. 27,დიდი დიღომი,29,1,4,3,1,7,8,,None m²,კახაბერი,4468275,physical,3,False,True,False,92,2025-02-26 14:56:17,2025-03-12 09:31:34,2,44.745556,41.779543
20716332,100000,2,89 m²,ვაკე-საბურთალო,4,ჟვანია ნ. ქ. 55,ვაკე,38,1,3,2,2,1,6,,None m²,კახაბერი,1198230,physical,3,False,True,False,114,2025-03-09 18:22:41,2025-03-12 09:26:14,2,44.76714,41.701778
20126194,39500,2,37 m²,ვაკე-საბურთალო,4,დემეტრე თავდადებულის ქუჩა 53,დიდი დიღომი,29,1,2,,1,2,2,,None m²,გიორგი,5496771,physical,1,False,True,False,1642,2025-01-02 14:48:07,2025-03-12 08:50:24,2,44.749515,41.795669
20491437,63700,2,47 m²,ვაკე-საბურთალო,4,ნინო აბაშიძე-ორბელიანის ქუჩა ,დიდი დიღომი,29,,2,1,1,10,12,1,47 m²,ნკ,3644531,physical,1,False,True,False,180,2025-02-14 18:24:03,2025-03-12 09:17:02,2,44.772634,41.688034
20422464,50000,2,36 m²,ვაკე-საბურთალო,4,რამაზის ქ. 65,დიდი დიღომი,29,1,2,1,1,6,9,1,2 m²,თორნიკე,1695763,physical,3,False,True,False,475,2025-02-07 23:11:01,2025-03-12 00:32:06,2,44.755447,41.783366
20682450,90000,2,67 m²,გლდანი-ნაძალადევი,1,მარატ ნოზაძის ქუჩა 20,გლდანი,2,1,3,1,,12,16,1,9 m²,ია,1606243,physical,2,False,True,False,52,2025-03-06 09:58:48,2025-03-12 07:40:30,2,44.772859,41.800078
20566535,60000,2,46 m²,ვაკე-საბურთალო,4,რამაზის ქ. 65,დიდი დიღომი,29,1,2,1,1,6,9,1,3 m²,თორნიკე,1695763,physical,3,False,True,False,76,2025-02-21 18:20:47,2025-03-12 00:31:08,2,44.755447,41.783366
20573890,123000,2,58.6 m²,ვაკე-საბურთალო,4,ლეო კვაჭაძის ქუჩა 19,ლისი,43,,3,2,1,2,4,,None m²,სერგო,3289208,physical,1,False,True,False,169,2025-02-22 23:27:18,2025-03-12 00:00:14,2,44.720214,41.744268
20722158,67000,2,102 m²,ისანი-სამგორი,5,ბერი გაბრიელ სალოსის გამზ. 120,ისანი,53,1,2,,1,1,10,1,50 m²,მამუკა,2151550,physical,1,False,True,False,173,2025-03-10 14:25:07,2025-03-12 00:00:14,2,44.864487,41.672619
20722158,67000,2,102 m²,ისანი-სამგორი,5,ბერი გაბრიელ სალოსის გამზ. 120,ისანი,53,1,2,,1,1,10,1,50 m²,მამუკა,2151550,physical,1,False,True,False,173,2025-03-10 14:25:07,2025-03-12 00:00:14,2,44.864487,41.672619
20422489,61500,2,47 m²,ვაკე-საბურთალო,4,ნინო აბაშიძე-ორბელიანის ქუჩა 2,დიდი დიღომი,29,1,2,1,1,3,12,1,3 m²,თორნიკე,1695763,physical,3,False,True,False,138,2025-02-07 23:19:45,2025-03-12 00:30:24,2,44.750506,41.78555
19881618,76000,2,72.3 m²,ვაკე-საბურთალო,4,ბობ უოლშის ქუჩა ,დიღომი 1-9,30,7,2,1,1,2,4,1,12 m²,ი,3364660,physical,1,False,True,False,306,2024-12-01 15:03:46,2025-03-11 23:46:12,2,44.781719,41.796113
20743172,121240,2,86.6 m²,ძველი თბილისი,6,ნადიკვარის დას; 2-ქ 34,ორთაჭალა,57,6,3,2,1,7,10,2,11 m²,მარიამი,3154451,physical,1,False,True,False,1,2025-03-11 22:59:16,2025-03-11 22:59:18,2,44.801517,41.693803
20695322,48450,2,64.6 m²,გლდანი-ნაძალადევი,1,გმირი კურსანტების ქ. 5ბ,გლდანი,2,,2,,,6,9,,None m²,გიორგი,3060365,physical,1,False,True,False,37,2025-03-06 23:35:29,2025-03-11 21:40:25,3,44.801641,41.801081
20616995,84000,2,47 m²,დიდუბე-ჩუღურეთი,3,მექანიზაციის შესახვევი 4,დიდუბე,23,1,2,1,1,10,23,1,5 m²,ნიკო,898648,physical,1,False,True,False,414,2025-02-27 14:17:09,2025-03-11 21:33:06,2,44.78389,41.747346
20742904,97000,2,60 m²,ისანი-სამგორი,5,ნავთლუღის ქ. ,ისანი,53,1,2,1,,2,24,1,5 m²,Liza,5614844,physical,2,False,True,False,10,2025-03-11 21:16:39,2025-03-11 21:19:03,2,44.839984,41.682158
20689798,86000,2,67 m²,დიდუბე-ჩუღურეთი,3,კოსმონავტების სანაპ. 47,დიდუბე,23,2,3,2,1,7,15,1,3 m²,თამარ,1312895,physical,1,False,True,False,32,2025-03-06 16:11:40,2025-03-11 22:51:34,2,44.802458,41.685728
20456255,100800,2,57.6 m²,ვაკე-საბურთალო,4,შარტავას ქ. 43,საბურთალო,47,7,2,1,2,6,37,1,6.2 m²,levan,4451570,physical,1,False,True,False,221,2025-02-11 21:38:46,2025-03-11 19:46:08,2,44.772387,41.728121
20297083,128000,2,102.5 m²,ვაკე-საბურთალო,4,ფარნავაზ მეფის გამზ. ,დიდი დიღომი,29,1,3,2,1,12,18,,None m²,პაატა,2234505,physical,1,False,True,False,560,2025-01-26 18:27:32,2025-03-11 19:23:41,2,44.764876,41.792558
20742081,60000,2,42 m²,ვაკე-საბურთალო,4,ტარიელის ქ. ,დიდი დიღომი,29,,2,1,1,7,7,,None m²,ნატო,4441298,physical,1,False,True,False,8,2025-03-11 18:45:35,2025-03-11 18:47:41,2,44.790593,41.70002
20743505,85000,2,48 m²,ვაკე-საბურთალო,4,გაგარინის ქ. ,საბურთალო,47,1,2,1,1,2,10,1,3 m²,დათო,3122436,physical,3,False,True,False,0,2025-03-12 09:07:23,2025-03-12 09:14:21,2,44.769859,41.735444
19923693,92800,2,58 m²,ვაკე-საბურთალო,4,იყალთოს ქ. 18,საბურთალო,47,5,2,1,1,3,12,1,5.7 m²,კობა,4224382,physical,1,False,True,False,189,2024-12-05 18:04:44,2025-03-11 18:51:36,3,44.773419,41.720096
20647528,60000,2,45 m²,ვაკე-საბურთალო,4,პ. იბერის ქ. 30,დიდი დიღომი,29,1,2,1,1,2,12,1,10 m²,დიმა,4503916,physical,2,False,True,False,192,2025-03-03 09:28:25,2025-03-12 09:09:43,2,44.755322,41.79198
20614538,62500,2,48.6 m²,ვაკე-საბურთალო,4,არჩილ მეფის ქ. 3,დიდი დიღომი,29,1,2,1,1,8,13,1,4 m²,ნათია,2112138,physical,3,False,True,False,146,2025-02-27 12:22:38,2025-03-11 18:42:48,3,44.740056,41.792456
20397157,117000,2,50 m²,ვაკე-საბურთალო,4,ი. გაგარინის ქ. ,საბურთალო,47,1,2,1,1,3,12,1,5 m²,შალე,2264658,physical,5,False,True,False,913,2025-02-05 21:28:58,2025-03-11 18:23:48,2,44.770168,41.735823
20741698,69500,2,48 m²,ვაკე-საბურთალო,4,მირიან მეფის ქ. ,დიდი დიღომი,29,,2,1,1,7,7,,None m²,თედო,4446870,physical,4,False,True,False,9,2025-03-11 18:29:06,2025-03-11 18:30:06,2,44.766632,41.786839
20739913,106162,2,75.83 m²,დიდუბე-ჩუღურეთი,3,კოსმონავტების სანაპ. 91,დიდუბე,23,1,3,2,1,14,14,2,10 m²,მარიამი,3370110,physical,2,False,True,False,6,2025-03-11 17:23:47,2025-03-11 17:23:48,2,44.801517,41.693803
20735896,55000,2,31 m²,ძველი თბილისი,6,კრწანისის ქ. ,კრწანისი,65,1,1,,,5,7,,None m²,ბესო,161348,physical,2,False,True,False,33,2025-03-11 15:07:44,2025-03-11 15:08:35,2,44.821443,41.673776
20528520,117000,2,80.6 m²,ვაკე-საბურთალო,4,აღმაშენებლის ხეივანი 218,დიდი დიღომი,29,1,3,2,1,5,11,2,12 m²,Natia,4620398,physical,1,False,True,False,99,2025-02-18 19:12:16,2025-03-11 16:55:22,2,44.766079,41.796512
20735741,75600,2,42 m²,ძველი თბილისი,6,კრწანისის ქ. 7,კრწანისი,65,1,2,1,,5,7,,None m²,ბესო,161348,physical,2,False,True,False,25,2025-03-11 15:01:16,2025-03-11 15:08:46,2,44.823354,41.675956
20735642,106000,2,53 m²,ვაკე-საბურთალო,4,ა. პოლიტკოვსკაიას ქუჩა (ჯიქია) 0,საბურთალო,47,1,2,1,1,7,18,1,5 m²,ჯენი,3953507,physical,5,False,True,False,31,2025-03-11 14:56:24,2025-03-11 14:58:29,2,44.714376,41.72024
20354717,65500,2,45 m²,ვაკე-საბურთალო,4,ასმათის ქ. ,დიდი დიღომი,29,,2,1,2,5,11,1,3 m²,ა,3840828,physical,1,False,True,False,320,2025-02-01 13:56:01,2025-03-11 14:40:14,2,44.752108,41.785057
20667689,76000,2,63 m²,ვაკე-საბურთალო,4,ი. ჰომერის ქ. 2,დიდი დიღომი,29,,3,2,,3,8,,None m²,ნუკრი,3514783,physical,4,False,True,False,63,2025-03-04 18:18:51,2025-03-11 13:58:57,2,44.740466,41.786796
20539713,122000,2,80 m²,ვაკე-საბურთალო,4,პ. იბერის ქ. ,დიდი დიღომი,29,1,3,2,1,10,11,1,7 m²,სამშენებლო,3221166,physical,5,False,True,False,393,2025-02-19 17:34:09,2025-03-11 12:49:50,2,44.755322,41.79198
20733146,93000,2,74 m²,ვაკე-საბურთალო,4,ფარნავაზ მეფის გამზ. 18,დიდი დიღომი,29,,3,2,1,15,18,,None m²,თეონა,5326937,physical,4,False,True,False,30,2025-03-11 13:03:24,2025-03-11 13:04:10,2,44.763914,41.791766
20083429,76000,2,63 m²,ისანი-სამგორი,5,ჯავახეთის ქ. 1,ვარკეთილი,52,1,2,1,1,13,20,1,6 m²,სოფო,1734514,physical,1,False,True,False,620,2024-12-24 14:13:57,2025-03-11 13:00:09,2,44.872538,41.681168
20099498,92000,2,74 m²,ვაკე-საბურთალო,4,თინათინის  ქ. ,დიდი დიღომი,29,1,3,2,1,5,6,1,5 m²,სამშენებლო,3221166,physical,5,False,True,False,471,2024-12-26 10:54:48,2025-03-11 12:49:49,2,44.759257,41.782504
20739628,86970,2,66.9 m²,ვაკე-საბურთალო,4,დიღომი 7 8,დიღომი 1-9,30,5,2,1,1,1,4,,None m²,მარიამი,3370110,physical,2,False,True,False,3,2025-03-11 17:14:45,2025-03-11 17:18:32,2,44.763188,41.730626
20012119,123000,2,62 m²,ვაკე-საბურთალო,4,ა. პოლიტკოვსკაიას ქუჩა (ჯიქია) 33,საბურთალო,47,,2,1,,9,18,,None m²,დამიანე,5465757,physical,2,False,True,False,370,2024-12-16 12:55:26,2025-03-11 15:51:09,2,44.7093,41.720732
20612335,76000,2,60 m²,ვაკე-საბურთალო,4,პ. იბერის ქ. ,დიდი დიღომი,29,1,3,,1,6,11,1,4 m²,E,3970043,physical,1,False,True,False,169,2025-02-26 19:03:49,2025-03-11 12:29:56,2,44.755322,41.79198
20671462,80000,2,51.5 m²,ვაკე-საბურთალო,4,აბაშიძე-ორბელიანი ნ. ქ. 2,დიდი დიღომი,29,1,2,1,1,12,12,1,5 m²,ხატია,4400778,physical,2,False,True,False,24,2025-03-05 12:27:33,2025-03-11 12:18:21,2,44.751196,41.78418
20099685,81500,2,67 m²,ვაკე-საბურთალო,4,მირიან მეფის ქ. ,დიდი დიღომი,29,1,3,2,1,4,8,1,5 m²,სამშენებლო,3221166,physical,5,False,True,False,899,2024-12-26 11:30:01,2025-03-11 12:49:48,2,44.766632,41.786839
20624623,62300,2,53 m²,ვაკე-საბურთალო,4,ტარიელის ქ. ,დიდი დიღომი,29,1,2,1,1,2,5,1,5 m²,სამშენებლო,3221166,physical,5,False,True,False,345,2025-02-27 22:21:26,2025-03-11 12:49:47,2,44.790593,41.70002
20624613,60500,2,49 m²,ვაკე-საბურთალო,4,ტარიელის ქ. ,დიდი დიღომი,29,1,2,1,1,2,5,1,4 m²,სამშენებლო,3221166,physical,5,False,True,False,272,2025-02-27 22:16:56,2025-03-11 12:49:45,2,44.790593,41.70002
20153414,83000,2,74 m²,ვაკე-საბურთალო,4,მირიან მეფის ქ. ,დიდი დიღომი,29,1,3,2,1,10,13,1,8 m²,ილია,3230631,physical,5,False,True,False,915,2025-01-09 12:22:10,2025-03-11 12:04:04,2,44.767005,41.786481
19951178,66000,2,55 m²,ვაკე-საბურთალო,4,მირიან მეფის ქ. ,დიდი დიღომი,29,1,3,2,1,10,13,1,6 m²,ილია,3230631,physical,5,False,True,False,1708,2024-12-09 15:32:29,2025-03-11 12:03:56,2,44.739155,41.787495
19951021,95000,2,88 m²,ვაკე-საბურთალო,4,მირიან მეფის ქ. ,დიდი დიღომი,29,1,4,3,1,5,13,1,7 m²,ილია,3230631,physical,5,False,True,False,1577,2024-12-09 15:27:13,2025-03-11 12:03:45,2,44.73906,41.787298
18526790,92000,2,88 m²,ვაკე-საბურთალო,4,მირიან მეფის ქ. ,დიდი დიღომი,29,1,3,2,1,7,13,1,10 m²,ილია,3230631,physical,5,False,True,False,2412,2024-06-10 14:04:23,2025-03-11 12:03:50,2,44.766632,41.786839
20271113,75000,2,60 m²,ვაკე-საბურთალო,4,ჟ. ტურნეფორის ქ. ,დიდი დიღომი,29,1,3,2,1,3,5,1,6 m²,ილია,3230631,physical,5,False,True,False,1166,2025-01-23 14:30:07,2025-03-11 12:03:30,2,44.728792,41.790547
19950429,66000,2,55 m²,ვაკე-საბურთალო,4,მირიან მეფის ქ. ,დიდი დიღომი,29,,3,2,1,11,13,1,6 m²,ილია,993568,physical,3,False,True,False,1557,2024-12-09 15:03:51,2025-03-11 12:02:15,2,44.740622,41.787335
20516107,108000,2,77.1 m²,ვაკე-საბურთალო,4,გიორგი ბრწყინვალეს ქ. 54,დიდი დიღომი,29,1,3,2,1,14,16,1,12 m²,თაკო,5353136,physical,1,False,True,False,540,2025-02-17 23:41:22,2025-03-11 12:01:06,2,44.759855,41.788711
20598547,55000,2,40 m²,ვაკე-საბურთალო,4,"ვაჟა ფშაველას გამზირი #55-99, 72-106 96",საბურთალო,47,1,2,1,1,1,1,1,7 m²,ნუცა,3809985,physical,1,False,True,False,632,2025-02-25 17:16:26,2025-03-11 11:56:45,2,44.733609,41.724335
20535851,76000,2,46 m²,ვაკე-საბურთალო,4,მარშალი გელოვანი გამზირი 52,საბურთალო,47,1,2,1,1,10,23,1,3 m²,otari,4810096,physical,1,False,True,False,536,2025-02-19 15:15:30,2025-03-11 11:50:23,2,44.768167,41.754272
20343652,90500,2,85 m²,ვაკე-საბურთალო,4,მირიან მეფის ქ. 113ა,დიდი დიღომი,29,1,4,3,1,4,12,1,8 m²,სამშენებლო,3808828,physical,4,False,True,False,687,2025-01-31 12:21:32,2025-03-11 11:27:24,2,44.766632,41.786839
20717056,100000,2,57 m²,ვაკე-საბურთალო,4,ა. ვარაზის ქ. 20ა,ლისი,43,,2,1,1,12,13,1,6 m²,597949292,3663448,physical,2,False,True,False,93,2025-03-09 22:27:17,2025-03-11 11:39:38,2,44.720815,41.734084
20525630,102000,2,98 m²,ვაკე-საბურთალო,4,შ. ნუცუბიძის ქ. ,საბურთალო,47,5,3,2,1,12,17,1,6 m²,SV,3113282,physical,2,False,True,False,591,2025-02-18 17:19:08,2025-03-11 12:13:14,2,44.73791,41.72745
19771124,80500,2,68 m²,ვაკე-საბურთალო,4,ი. ჰომერის ქ. 2,დიდი დიღომი,29,1,3,2,1,6,8,1,7 m²,სამშენებლო,3808828,physical,4,False,True,False,2089,2024-11-19 15:53:46,2025-03-11 11:27:22,2,44.739464,41.785538
19993925,64000,2,48 m²,ვაკე-საბურთალო,4,ტარიელის ქ. 1,დიდი დიღომი,29,1,2,1,1,2,8,1,5 m²,სამშენებლო,3808828,physical,4,False,True,False,771,2024-12-13 14:01:50,2025-03-11 11:27:23,2,44.790593,41.70002
20127460,88500,2,67 m²,ვაკე-საბურთალო,4,ი. ჰომერის ქ. 2,დიდი დიღომი,29,1,3,2,1,6,8,1,6 m²,სამშენებლო,3499768,physical,2,False,True,False,1187,2025-01-03 13:45:30,2025-03-11 11:23:44,2,44.739464,41.785538
20532111,69500,2,53 m²,ვაკე-საბურთალო,4,ნესტან-დარეჯანის ქ. 26,დიდი დიღომი,29,1,2,1,1,5,7,1,5 m²,სამშენებლო,3808828,physical,4,False,True,False,229,2025-02-19 12:29:57,2025-03-11 11:27:21,2,44.749155,41.782371
20379864,74000,2,39 m²,დიდუბე-ჩუღურეთი,3,ა. ბელიაშვილის ქ. 72,დიღმის მასივი,24,1,2,1,1,12,20,1,4 m²,მაია,3159402,physical,1,False,True,False,352,2025-02-04 15:53:21,2025-03-11 12:10:37,2,44.779259,41.771286
19805922,72500,2,65 m²,ვაკე-საბურთალო,4,არჩილ მეფის ქ. ,დიდი დიღომი,29,1,3,2,1,7,12,1,4 m²,სამშენებლო,4108491,physical,1,False,True,False,1296,2024-11-22 14:57:38,2025-03-11 11:25:13,2,44.738081,41.792632
20572325,82491,2,88.7 m²,ვაკე-საბურთალო,4,დემეტრე თავდადებულის ქუჩა 40,დიდი დიღომი,29,5,4,3,1,4,16,1,5 m²,ელენე,1882139,physical,2,False,True,False,140,2025-02-22 16:54:50,2025-03-11 10:23:46,2,44.749515,41.795669
20730115,125000,2,80 m²,დიდუბე-ჩუღურეთი,3,ლუბლიანას ქ. 38ა,დიღმის მასივი,24,1,3,2,1,10,10,2,5 m²,თეო,5419050,physical,5,False,True,False,25,2025-03-10 21:18:15,2025-03-10 21:20:00,2,44.774618,41.776321
18903690,63000,2,66.2 m²,ისანი-სამგორი,5,შანდორ პეტეფის ქუჩა 42,ვაზისუბანი,51,5,3,2,1,13,15,1,4 m²,Tako,4042242,physical,2,False,True,False,844,2024-08-01 14:36:43,2025-03-11 00:45:34,3,44.861186,41.695603
20680882,67430,2,61.3 m²,ვაკე-საბურთალო,4,4000 მესხის ქ. 13,დიდი დიღომი,29,5,2,,,13,14,,None m²,შაკო,2207706,physical,1,False,True,False,89,2025-03-05 18:43:23,2025-03-11 00:00:23,2,44.765336,41.784904
19903359,65000,2,48 m²,ვაკე-საბურთალო,4,ნესტან-დარეჯანის ქ. ,დიდი დიღომი,29,1,2,1,1,3,7,1,6 m²,ხათუნა.,1937404,physical,1,False,True,False,1459,2024-12-03 21:57:05,2025-03-11 00:22:37,2,44.749155,41.782371
20298774,125000,2,65 m²,ვაკე-საბურთალო,4,მარაბდის ქუჩა ,ვაკე,38,1,2,1,1,1,12,,None m²,თეო,5419050,physical,5,False,True,False,216,2025-01-27 11:57:24,2025-03-10 21:12:58,2,44.770319,41.703797
20677793,110000,2,60 m²,ვაკე-საბურთალო,4,ტაბლიაშვილი,ბაგები,28,1,2,1,1,1,7,1,13 m²,ლევან ბუცხრიკიძე,2373169,physical,2,False,True,False,111,2025-03-05 16:42:56,2025-03-10 20:13:25,2,44.729615,41.709002
19625947,93000,2,61 m²,ძველი თბილისი,6,ა. ლაისტის ქ. 4,ორთაჭალა,57,,3,2,2,18,32,,None m²,გიორგი,4134668,physical,1,False,True,False,645,2024-11-04 16:51:25,2025-03-10 19:43:45,2,44.839404,41.674875
20647690,100800,2,63 m²,ვაკე-საბურთალო,4,ამბერკ ტაბიძის ქუჩა 41,ლისი,43,1,2,1,1,7,14,1,7 m²,ლადი,4456293,physical,1,False,True,False,96,2025-03-03 11:16:42,2025-03-10 18:03:04,2,44.722262,41.736769
18670866,95000,2,45 m²,ვაკე-საბურთალო,4,მარშალი გელოვანი გამზირი 1,საბურთალო,47,1,2,1,1,5,9,1,5 m²,გიორგი,3157051,physical,1,False,True,False,2211,2024-06-30 20:23:27,2025-03-10 15:05:41,2,44.769566,41.752838
18565443,60500,2,55 m²,ვაკე-საბურთალო,4,დიდი დიღომი ფატმანის ქ.#69,დიდი დიღომი,29,8,3,2,1,2,5,,None m²,გოჩა,3224264,physical,1,False,True,False,2995,2024-06-15 14:00:38,2025-03-10 17:46:47,3,44.7517,41.782722
20719044,83000,2,75 m²,ვაკე-საბურთალო,4,დავარის ქ. 38,დიდი დიღომი,29,7,4,3,1,3,10,1,8 m²,იყიდება,606493,physical,3,False,True,False,77,2025-03-10 12:21:09,2025-03-10 12:21:10,2,44.757135,41.785568
20530456,65000,2,46 m²,ვაკე-საბურთალო,4,ნინო აბაშიძე-ორბელიანის ქუჩა 2,დიდი დიღომი,29,1,2,1,1,10,12,1,5 m²,ნინო,4659981,physical,1,False,True,False,329,2025-02-19 09:34:48,2025-03-10 12:11:12,2,44.750506,41.78555
20499911,122000,2,75 m²,ვაკე-საბურთალო,4,ამბერკ ტაბიძის ქუჩა 41,ლისი,43,,2,1,1,4,14,1,14 m²,თამუნა,2184688,physical,1,False,True,False,354,2025-02-16 02:05:05,2025-03-09 14:49:16,2,44.721961,41.737091
20427362,77000,2,70 m²,ისანი-სამგორი,5,დოდაშვილის ქუჩა; ჩიხები 22,ისანი,53,1,3,2,2,12,12,3,17 m²,მაია,3803629,physical,1,False,True,False,1319,2025-02-08 16:59:48,2025-03-08 09:56:52,2,44.844918,41.677717
20515096,103500,2,56 m²,ძველი თბილისი,6,ნადიკვარის დას; 3-ქ ,ორთაჭალა,57,1,2,1,1,6,8,1,6 m²,მიშა,5599952,physical,2,False,True,False,112,2025-02-17 19:49:50,2025-03-07 22:13:52,2,44.816355,41.679061
20644792,88200,2,63 m²,ვაკე-საბურთალო,4,აბულაძე ი. ქ. ,საბურთალო,47,7,2,1,1,5,7,,12 m²,თორნიკე,2086508,physical,2,False,True,False,172,2025-03-02 13:54:06,2025-03-07 13:12:53,2,44.742788,41.732601
20003141,45500,2,30 m²,ვაკე-საბურთალო,4,ტარიელის ქ. 2,დიდი დიღომი,29,1,1,1,1,2,8,1,4 m²,ს,3499768,physical,2,False,True,False,1468,2024-12-14 13:09:04,2025-03-11 11:23:43,2,44.790593,41.70002
20730201,128000,2,84 m²,ვაკე-საბურთალო,4,პ. იბერის ქ. 7,დიდი დიღომი,29,1,4,,1,4,12,2,8 m²,თეა,5615064,physical,1,False,True,False,25,2025-03-10 21:48:56,2025-03-10 21:48:57,2,44.755542,41.790508
20695682,130000,2,56.6 m²,ვაკე-საბურთალო,4,წყნეთის გზატკეცილი 49ბ,ბაგები,28,1,2,1,1,12,16,1,6 m²,ანუკი,3679125,physical,1,False,True,False,39,2025-03-07 09:35:25,2025-03-07 09:37:34,2,44.72437,41.71207
19419393,99000,2,92 m²,ვაკე-საბურთალო,4,დემეტრე თავდადებულის ქუჩა 10ა,დიდი დიღომი,29,,4,2,1,1,9,,None m²,მამუკა,2188680,physical,1,False,True,False,672,2024-10-10 15:14:44,2025-03-05 17:14:00,2,44.760287,41.795868
19709402,115000,2,65 m²,ვაკე-საბურთალო,4,ქავთარაძის ქ. 8,საბურთალო,47,1,2,1,1,3,8,1,3 m²,მარიკა,3245674,physical,1,False,True,False,1148,2024-11-13 11:49:14,2025-03-05 12:20:54,2,44.728947,41.72118
20682365,98075.4,2,73.3 m²,ვაკე-საბურთალო,4,გიორგი ბრწყინვალეს ქ. 54,დიდი დიღომი,29,1,4,,1,13,16,3,16 m²,ანა,3770052,physical,1,False,True,False,50,2025-03-06 02:47:45,2025-03-06 02:50:25,2,44.751333,41.789277
20232784,68500,2,56 m²,ისანი-სამგორი,5,ვ. კუპრაძის ქ. 35,ვარკეთილი,52,7,2,1,1,5,10,,None m²,თამარი,4789753,physical,1,False,True,False,105,2025-01-19 12:39:09,2025-03-06 10:24:52,3,44.872525,41.70453
20577496,120000,2,101 m²,ვაკე-საბურთალო,4,4000 მესხის ქ. ,დიდი დიღომი,29,1,4,3,2,10,11,,None m²,ნიკა,4392152,physical,1,True,False,False,225,2025-02-24 10:27:54,2025-03-12 11:10:23,2,44.765338,41.784713
20122083,80000,2,89 m²,ვაკე-საბურთალო,4,მირიან მეფის ქ. 89,დიდი დიღომი,29,5,4,3,1,11,13,1,17 m²,შაკო,4681154,physical,3,True,False,False,639,2024-12-29 22:54:24,2025-03-12 11:00:34,2,44.739654,41.787934
20122083,80000,2,89 m²,ვაკე-საბურთალო,4,მირიან მეფის ქ. 89,დიდი დიღომი,29,5,4,3,1,11,13,1,17 m²,შაკო,4681154,physical,3,True,False,False,639,2024-12-29 22:54:24,2025-03-12 11:00:34,2,44.739654,41.787934
20122087,67500,2,75 m²,ვაკე-საბურთალო,4,მირიან მეფის ქ. ,დიდი დიღომი,29,5,3,2,,7,13,,None m²,შაკო,4681154,physical,3,True,False,False,1096,2024-12-29 23:02:57,2025-03-12 11:00:34,2,44.739627,41.787956
20308810,85000,2,38 m²,დიდუბე-ჩუღურეთი,3,ა. ბელიაშვილის ქ. 68,დიღმის მასივი,24,1,2,1,1,13,22,1,4 m²,Lasha,3788560,physical,3,False,True,False,321,2025-01-28 02:22:06,2025-02-28 16:23:06,2,44.779259,41.771286
19933897,88000,2,51.87 m²,ვაკე-საბურთალო,4,აკაკი ბაქრაძის ქ.7 #140,საბურთალო,47,5,2,1,1,8,10,1,4.1 m²,ზაზა,4948755,physical,1,True,False,False,1001,2024-12-06 17:16:01,2025-03-12 11:00:34,2,44.771256,41.751929
20743674,108000,2,68 m²,ვაკე-საბურთალო,4,ა. პოლიტკოვსკაიას ქუჩა (ჯიქია) ,საბურთალო,47,1,3,2,2,2,12,,None m²,Tako,4637699,physical,1,True,False,False,0,2025-03-12 10:57:18,2025-03-12 10:57:20,2,44.705137,41.727715
20499090,90000,2,52 m²,დიდუბე-ჩუღურეთი,3,დადიანი ც. ქ. 7,ჩუღურეთი,27,,2,1,1,18,22,,None m²,mari,765567,physical,4,True,False,False,70,2025-02-15 19:28:41,2025-03-12 10:57:02,2,44.797099,41.733229
20743595,130000,2,78 m²,ვაკე-საბურთალო,4,თინათინის  ქ. 4,დიდი დიღომი,29,1,3,2,1,7,10,2,5 m²,პოლი,4489785,physical,2,True,False,False,0,2025-03-12 10:30:48,2025-03-12 10:30:49,2,44.759677,41.786
18708842,95000,2,41 m²,ვაკე-საბურთალო,4,ა. პოლიტკოვსკაიას ქუჩა (ჯიქია) 2,საბურთალო,47,1,1,,,11,14,,None m²,ГАЛИНА,5448269,physical,1,True,False,False,1346,2024-07-05 11:09:44,2025-03-12 10:31:06,2,44.7093,41.720732
20669467,45000,2,34 m²,ძველი თბილისი,6,გორგასლის შეს. 40,ორთაჭალა,57,2,2,1,1,1,10,,None m²,ანა,5499610,physical,2,True,False,False,127,2025-03-04 23:24:24,2025-03-12 10:15:56,2,44.826478,41.673487
18112735,120000,2,70 m²,ვაკე-საბურთალო,4,მარშალი გელოვანი გამზირი ,საბურთალო,47,3,2,2,,24,32,0,None m²,ARTYOM,3759308,physical,3,False,True,False,989,2024-04-17 14:41:46,2025-03-03 18:48:10,2,44.771094,41.747997
20164776,78000,2,71.8 m²,ვაკე-საბურთალო,4,ბობ უოლშის ქუჩა 26,დიღომი 1-9,30,7,3,2,1,1,5,,None m²,NIKO,2198713,physical,1,False,True,False,187,2025-01-10 13:45:25,2025-03-03 16:16:13,2,44.781719,41.796113
20468186,77000,2,47 m²,დიდუბე-ჩუღურეთი,3,ლუბლიანას ქ. ,დიღმის მასივი,24,1,2,1,1,1,7,0,None m²,ქეთი,3716867,physical,4,True,False,False,265,2025-02-12 21:19:35,2025-03-12 10:26:43,2,44.774834,41.775159
20508396,108000,2,81.1 m²,ვაკე-საბურთალო,4,ა. ვარაზის ქ. 99ე,ლისი,43,7,3,2,1,4,5,1,9.2 m²,ირაკლი,4188931,physical,3,True,False,False,167,2025-02-17 15:04:20,2025-03-12 10:00:18,2,44.717774,41.737111
19096495,73000,2,57.1 m²,გლდანი-ნაძალადევი,1,მარატ ნოზაძის ქუჩა 12,გლდანი,2,7,2,1,1,12,12,1,8.68 m²,ირაკლი,4188931,physical,3,True,False,False,751,2024-08-30 13:50:48,2025-03-12 10:00:18,2,44.821034,41.790862
20503424,117900.5,2,63.73 m²,ვაკე-საბურთალო,4,შატბერაშვილის ქ. 41,ვაკე,38,7,3,,,3,5,,None m²,თამარი,2241048,physical,1,True,False,False,289,2025-02-17 11:03:38,2025-03-12 10:00:18,3,44.771701,41.703595
20361728,68000,2,54.1 m²,ვაკე-საბურთალო,4,გიორგი ბრწყინვალეს ქ. 54,დიდი დიღომი,29,1,2,1,1,4,15,1,8.9 m²,მესაკუთრე,2246820,physical,1,True,False,False,182,2025-02-02 21:24:52,2025-03-12 09:00:19,2,44.759855,41.788711
20602017,130000,2,77 m²,ვაკე-საბურთალო,4,ქავთარაძის ქ. ,საბურთალო,47,1,2,1,1,9,12,,None m²,Giorgi,4622049,physical,4,True,False,False,38,2025-02-26 01:53:46,2025-03-12 09:43:42,2,44.737122,41.722268
20743489,30000,2,50 m²,ვაკე-საბურთალო,4,დემეტრე თავდადებულის ქუჩა ,დიდი დიღომი,29,,2,1,1,10,10,,None m²,თამუნა,1434733,physical,2,True,False,False,0,2025-03-12 08:00:58,2025-03-12 08:01:48,3,44.749515,41.795669
20422624,74500,2,51.4 m²,დიდუბე-ჩუღურეთი,3,ონიანი ე. ქ. ,დიღმის მასივი,24,7,2,1,1,9,9,1,4 m²,ანი,2147242,physical,1,True,False,False,118,2025-02-08 00:12:21,2025-03-12 08:39:40,2,44.771448,41.771835
20696467,59000,2,50 m²,ისანი-სამგორი,5,ვ. კუპრაძის ქ. 72,ვარკეთილი,52,,3,,1,5,9,,None m²,Tamari,5543619,physical,1,True,False,False,15,2025-03-07 11:50:29,2025-03-12 01:40:55,2,44.881128,41.715241
20743390,77000,2,50 m²,ისანი-სამგორი,5,ნავთლუღის ქ. ,ისანი,53,5,2,1,1,9,26,1,11.5 m²,Tamari,4783254,physical,4,True,False,False,23,2025-03-12 00:55:27,2025-03-12 00:55:29,2,44.840184,41.683118
20134792,89999,2,79 m²,ვაკე-საბურთალო,4,შერმადინის ქ. 20,დიდი დიღომი,29,1,3,2,1,2,6,3,2 m²,ანი,555266,physical,1,True,False,False,364,2025-01-05 20:41:30,2025-03-12 02:39:36,2,44.745556,41.779543
20573200,56200,2,48.9 m²,გლდანი-ნაძალადევი,1,ქერჩის ქ. ,გლდანი,2,,2,1,1,13,13,,None m²,თამუნა,4890554,physical,2,True,False,False,51,2025-02-22 18:42:14,2025-03-12 00:01:11,3,44.80777,41.794012
19068216,93000,2,52 m²,ვაკე-საბურთალო,4,ა. პოლიტკოვსკაიას ქუჩა (ჯიქია) 63,საბურთალო,47,1,2,1,1,5,6,1,3 m²,მართა,3771039,physical,1,True,False,False,959,2024-08-26 14:58:33,2025-03-12 00:00:14,2,44.7093,41.720732
19887524,74970,2,49 m²,ძველი თბილისი,6,ვახტანგ გორგასლის ქუჩა 61,კრწანისი,65,7,2,,1,6,12,1,5.2 m²,Elena,5506641,physical,1,True,False,False,389,2024-12-02 15:06:11,2025-03-12 00:00:14,3,44.811763,41.689055
20127252,52000,2,47.4 m²,ვაკე-საბურთალო,4,ბობ უოლშის ქუჩა 40,დიღომი 1-9,30,6,2,1,1,3,8,1,4.5 m²,ლალი,4161540,physical,2,True,False,False,237,2025-01-03 13:06:49,2025-03-12 00:00:14,2,44.781719,41.796113
20709799,102000,2,70 m²,დიდუბე-ჩუღურეთი,3,ლუბლიანას ქ. 11,დიღმის მასივი,24,1,3,2,1,5,17,,None m²,akaki,2245671,physical,3,True,False,False,152,2025-03-08 12:16:31,2025-03-12 00:00:14,2,44.775234,41.770609
20497755,68500,2,56 m²,ისანი-სამგორი,5,დავითაიას ქუჩა 15,ვაზისუბანი,51,1,2,1,1,2,12,,None m²,კობა,5427439,physical,3,True,False,False,220,2025-02-15 16:28:42,2025-03-12 09:16:30,2,44.849809,41.702375
20661493,66000,2,48 m²,ისანი-სამგორი,5,შ. ნადირაშვილის ქ. ,ისანი,53,1,2,1,1,12,20,1,3 m²,ანარ,4620658,physical,2,True,False,False,51,2025-03-04 14:32:01,2025-03-12 09:27:38,2,44.856782,41.671792
20742784,67500,2,47 m²,ვაკე-საბურთალო,4,ნინო აბაშიძე-ორბელიანის ქუჩა 2,დიდი დიღომი,29,1,2,1,1,5,12,,4 m²,ზურა,4530146,physical,1,True,False,False,4,2025-03-11 20:30:24,2025-03-12 00:00:14,2,44.772653,41.688188
20709935,70000,2,39.9 m²,ვაკე-საბურთალო,4,ვეფხისტყაოსნის ქ. 6,დიდი დიღომი,29,1,2,1,1,14,17,,None m²,დავით,2055629,physical,1,True,False,False,88,2025-03-08 12:30:58,2025-03-12 00:00:14,2,44.766545,41.786561
20686522,130000,2,59 m²,ვაკე-საბურთალო,4,გიორგი დანელიას ქუჩა 4,საბურთალო,47,6,2,1,1,6,8,1,8.7 m²,L,3159940,physical,2,True,False,False,12,2025-03-06 13:57:17,2025-03-12 00:00:14,2,44.717789,41.717506
20428985,115000,2,59 m²,ძველი თბილისი,6,ა. ლაისტის ქ. ,ორთაჭალა,57,1,2,1,1,7,10,1,1 m²,თეა,926814,physical,1,True,False,False,78,2025-02-08 22:57:19,2025-03-12 00:00:14,2,44.839404,41.674875
19271489,88500,2,40 m²,ვაკე-საბურთალო,4,საკანდელიძე ზ. ქ. ,ბაგები,28,1,1,,1,1,6,,None m²,Stepan,4395391,physical,2,True,False,False,821,2024-09-22 15:47:43,2025-03-11 23:55:37,2,44.725618,41.710465
19757403,59500,2,70.91 m²,ვაკე-საბურთალო,4,ასმათის ქ. ,დიდი დიღომი,29,5,3,2,1,11,15,1,6 m²,მარიამი,4913038,physical,2,True,False,False,907,2024-11-18 14:23:33,2025-03-11 21:45:22,3,44.752108,41.785057
20714412,89000,2,62 m²,ვაკე-საბურთალო,4,მარშალი გელოვანი გამზირი 60,საბურთალო,47,1,2,1,1,6,15,1,5 m²,anastasia,5436048,physical,2,True,False,False,247,2025-03-09 13:17:03,2025-03-11 20:40:52,2,44.768383,41.759798
20288254,103600,2,56.7 m²,ძველი თბილისი,6,კრწანისის ქ. 35,კრწანისი,65,5,2,1,1,2,10,1,12.5 m²,ლელა ჩხიკვაძე,4623185,physical,1,True,False,False,40,2025-01-24 23:39:43,2025-03-11 21:01:16,2,44.815514,41.672959
20225786,55000,2,47.4 m²,ისანი-სამგორი,5,ვაზისუბნის დას ,ვაზისუბანი,51,7,2,1,1,13,15,1,2.5 m²,გია,4085542,physical,1,True,False,False,280,2025-01-17 23:10:31,2025-03-11 20:29:46,2,44.859638,41.691947
20741539,110000,2,90.3 m²,ისანი-სამგორი,5,ვარკეთილის მასივი - ზემო პლატო ,ვარკეთილი,52,1,4,3,1,3,14,1,17 m²,მარიამი,309128,physical,1,True,False,False,47,2025-03-11 18:23:35,2025-03-11 19:49:45,2,44.882607,41.690626
20662134,114000,2,55 m²,ვაკე-საბურთალო,4,მინდელის ქუჩა ,საბურთალო,47,1,2,1,1,7,18,1,6 m²,...,5508182,physical,4,True,False,False,105,2025-03-04 15:02:44,2025-03-11 18:56:54,2,44.711868,41.724813
20122293,130000,2,80 m²,დიდუბე-ჩუღურეთი,3,ლუბლიანას ქ. 34,დიღმის მასივი,24,,4,3,1,2,9,1,3 m²,სოფიო,2248590,physical,1,True,False,False,677,2024-12-30 08:54:52,2025-03-11 18:30:32,2,44.774834,41.775159
20382546,91000,2,80 m²,ვაკე-საბურთალო,4,ვეფხისტყაოსნის ქ. 54,დიდი დიღომი,29,1,3,2,1,2,8,2,6 m²,ირაკლი,939652,physical,1,True,False,False,1247,2025-02-04 17:34:49,2025-03-11 19:00:44,2,44.757697,41.786818
17227356,70200,2,54 m²,ძველი თბილისი,6,ვახტანგ გორგასლის ქუჩა ,კრწანისი,65,5,2,1,1,15,21,,None m²,ა,2302412,physical,3,True,False,False,976,2024-01-23 00:25:41,2025-03-11 22:59:32,2,44.839529,41.671092
20669306,45000,2,34 m²,ძველი თბილისი,6,გორგასლის შეს. 40,ორთაჭალა,57,2,2,1,1,1,10,,None m²,ანა,4926882,physical,5,True,False,False,147,2025-03-04 22:06:55,2025-03-11 18:30:11,2,44.826478,41.673487
18429837,85000,2,67 m²,ვაკე-საბურთალო,4,13 ასურელი მამის ქ. 123,დიდი დიღომი,29,1,2,1,1,4,11,2,16 m²,ბეა,1856005,physical,1,True,False,False,198,2024-05-26 20:04:33,2025-03-11 18:20:16,2,44.766878,41.776945
20654234,85000,2,62 m²,გლდანი-ნაძალადევი,1,ხიზაბავრას ქ. ,გლდანი,2,1,3,2,1,5,9,,None m²,ლევან,4926247,physical,1,True,False,False,171,2025-03-03 17:38:37,2025-03-11 22:52:48,2,44.80893,41.791459
20195828,115000,2,55.4 m²,ვაკე-საბურთალო,4,ქავთარაძის ქ. ,საბურთალო,47,1,2,1,1,8,8,1,4 m²,თამუნა,5422998,physical,5,True,False,False,374,2025-01-14 22:49:37,2025-03-11 17:47:19,2,44.728947,41.72118
20681815,77000,2,60 m²,გლდანი-ნაძალადევი,1,ხიზაბავრას ქ. 1,გლდანი,2,1,2,1,1,9,20,,None m²,იპ,3133957,physical,1,True,False,False,99,2025-03-05 21:28:55,2025-03-11 16:41:11,2,44.81097,41.790245
20647393,63000,2,41.3 m²,ვაკე-საბურთალო,4,ტარიელის ქ. 1,დიდი დიღომი,29,1,2,,1,6,7,1,6 m²,გოჩა,986340,physical,1,True,False,False,236,2025-03-03 01:24:33,2025-03-11 16:59:02,2,44.790593,41.70002
20230382,90000,2,66.6 m²,ვაკე-საბურთალო,4,როსტევანის ქ. 8ა,დიდი დიღომი,29,,2,1,1,3,8,1,2 m²,ვანო,3920904,physical,1,True,False,False,73,2025-01-18 17:15:08,2025-03-11 16:49:01,2,44.780425,41.769043
20737492,84000,2,60 m²,ვაკე-საბურთალო,4,ა. იოსელიანის ქ. ,საბურთალო,47,1,2,1,1,1,5,,None m²,ნონა,3334824,physical,1,True,False,False,53,2025-03-11 16:01:39,2025-03-11 16:16:44,2,44.708339,41.718725
20737323,64300,2,51 m²,გლდანი-ნაძალადევი,1,გლდანი - V მ/რ 119,გლდანი,2,1,2,1,1,16,16,2,15 m²,ბექა,2258262,physical,2,True,False,False,32,2025-03-11 15:56:18,2025-03-11 15:57:20,2,44.827973,41.801616
20555655,52000,2,74 m²,ვაკე-საბურთალო,4,დიდი დიღომი - III მ/რ 22a,დიდი დიღომი,29,6,3,2,1,12,14,2,10 m²,ლილი,4528044,physical,2,True,False,False,102,2025-02-20 20:03:32,2025-03-11 15:13:34,3,44.753942,41.794856
19791984,85000,2,47.3 m²,დიდუბე-ჩუღურეთი,3,მირცხულავას ქუჩა 11,დიდუბე,23,1,2,1,1,12,20,1,3 m²,თ,1420620,physical,3,True,False,False,679,2024-11-21 13:20:46,2025-03-11 15:56:26,2,44.774358,41.745232
19663434,73000,2,72 m²,ვაკე-საბურთალო,4,მირიან მეფის ქ. 29,დიდი დიღომი,29,1,4,3,1,14,14,1,14 m²,ირაკლი,4875386,physical,1,True,False,False,808,2024-11-07 18:21:06,2025-03-11 14:34:26,2,44.766632,41.786839
20525786,55000,2,47.5 m²,ვაკე-საბურთალო,4,აბაშიძე-ორბელიანი ნ. ქ. 2,დიდი დიღომი,29,7,2,1,1,9,12,1,4 m²,ხათუნა,5516004,physical,3,True,False,False,51,2025-02-18 17:23:45,2025-03-11 15:04:34,2,44.750114,41.78418
20470394,91500,2,75 m²,ვაკე-საბურთალო,4,დიდი დიღომი - II მ/რ 150,დიდი დიღომი,29,1,3,2,1,3,11,1,7 m²,ბექა,3478189,physical,4,True,False,False,38,2025-02-13 12:17:58,2025-03-11 14:19:45,2,44.751468,41.796109
20429557,60000,2,57 m²,ვაკე-საბურთალო,4,თეიმურაზ I ქ. 3,დიდი დიღომი,29,5,3,2,1,9,10,1,7 m²,მაკო,5594615,physical,3,True,False,False,173,2025-02-09 12:24:21,2025-03-11 13:56:52,2,44.749516,41.790269
20737882,62500,2,54 m²,გლდანი-ნაძალადევი,1,მარატ ნოზაძის ქუჩა 21,გლდანი,2,7,2,1,1,10,12,1,9 m²,მარი,3218278,physical,1,True,False,False,36,2025-03-11 16:15:49,2025-03-11 16:15:51,2,44.823459,41.790517
20729000,68000,2,47 m²,ვაკე-საბურთალო,4,მირიან მეფის ქ. ,დიდი დიღომი,29,1,2,1,2,4,12,,None m²,ააა,2396640,physical,3,True,False,False,32,2025-03-10 18:34:54,2025-03-11 14:11:10,2,44.766632,41.786839
20735105,125000,2,80 m²,ისანი-სამგორი,5,შ. ნადირაშვილის ქ. 22,ისანი,53,2,3,2,1,19,23,2,5 m²,ირაკლი,4350176,physical,2,True,False,False,30,2025-03-11 14:29:23,2025-03-11 14:30:56,2,44.842963,41.710703
20373871,115000,2,56 m²,ვაკე-საბურთალო,4,შ. ნუცუბიძის ქ. 77კ,საბურთალო,47,1,2,1,1,3,14,1,10 m²,temo,5582339,physical,5,True,False,False,371,2025-02-04 10:54:07,2025-03-11 16:45:08,2,44.73791,41.72745
20561522,82000,2,56.4 m²,გლდანი-ნაძალადევი,1,ხიზაბავრას ქ. 15,გლდანი,2,1,3,2,1,8,9,1,4 m²,ბექა,3478183,physical,4,True,False,False,209,2025-02-21 14:58:51,2025-03-11 13:59:37,2,44.80893,41.791459
20429569,65000,2,61.1 m²,ვაკე-საბურთალო,4,თეიმურაზ I ქ. 3,დიდი დიღომი,29,5,3,2,1,3,10,1,7 m²,მაკო,5594615,physical,3,True,False,False,112,2025-02-09 12:26:52,2025-03-11 13:56:45,2,44.749344,41.789342
20493182,75000,2,56.4 m²,დიდუბე-ჩუღურეთი,3,მექანიზაციის შესახვევი ,დიდუბე,23,7,2,1,2,4,26,1,12.7 m²,T,3995154,physical,1,True,False,False,197,2025-02-14 23:09:01,2025-03-11 13:51:22,3,44.78389,41.747346
20217274,112300,2,74 m²,ისანი-სამგორი,5,ჯავახეთის ქ. ,ვარკეთილი,52,1,3,2,1,6,19,1,10 m²,თბილისი,2014791,physical,5,True,False,False,833,2025-01-17 12:18:26,2025-03-11 12:58:39,2,44.871749,41.681649
18499514,82700,2,83.8 m²,დიდუბე-ჩუღურეთი,3,ბობ უოლშის ქუჩა ,დიღმის მასივი,24,5,3,2,1,8,15,3,12 m²,inga,2179249,physical,2,True,False,False,881,2024-06-06 12:31:21,2025-03-11 12:37:00,3,44.781719,41.796113
20165275,105000,2,76 m²,ისანი-სამგორი,5,ჯავახეთის ქ. 1,ვარკეთილი,52,1,3,2,1,9,20,1,10 m²,სოფო,4007834,physical,3,True,False,False,507,2025-01-10 14:16:38,2025-03-11 13:03:02,2,44.871931,41.679414
20352815,80000,2,65.4 m²,ისანი-სამგორი,5,ვაზისუბნის დასახლება - I მ/რ 35,ვაზისუბანი,51,1,3,2,,11,15,,None m²,რომეო,5415160,physical,1,True,False,False,279,2025-02-01 00:07:35,2025-03-11 12:15:34,2,44.846488,41.701882
20196436,95200,2,112 m²,ვაკე-საბურთალო,4,ფარნავაზ მეფის გამზ. ,დიდი დიღომი,29,5,4,,1,6,16,2,8 m²,გიორგი,39229,physical,2,True,False,False,153,2025-01-15 11:26:00,2025-03-11 12:01:06,3,44.76964,41.790389
18466153,121800,2,87 m²,ვაკე-საბურთალო,4,ცინცაძე ს. ქ. 26,საბურთალო,47,1,3,2,1,12,15,1,17 m²,მარი,4484485,physical,4,True,False,False,998,2024-06-01 13:40:03,2025-03-11 12:10:51,2,44.763111,41.721281
20493014,125000,2,57 m²,ისანი-სამგორი,5,ნავთლუღის ქ. 10,ისანი,53,1,2,1,1,21,24,,None m²,Mark,249295,physical,1,False,False,False,140,2025-02-14 22:11:21,2025-03-11 11:26:36,2,44.841042,41.682862
20239619,97000,2,54 m²,ვაკე-საბურთალო,4,დოლიძე ვ. ქ. ,საბურთალო,47,1,2,1,1,4,12,2,5 m²,ნიკა,3914427,physical,4,True,False,False,955,2025-01-20 14:59:19,2025-03-11 11:38:36,2,44.765273,41.716643
20624706,82000,2,60 m²,ისანი-სამგორი,5,წულუკიძის ქუჩა 35,ვარკეთილი,52,1,3,2,1,3,14,,None m²,ანა,3701028,physical,2,True,False,False,186,2025-02-27 22:56:20,2025-03-11 11:49:23,2,44.86632,41.69017
20302935,103000,2,47.1 m²,ვაკე-საბურთალო,4,გაზაფხულის ქუჩა (ყოფ. დელისის მე-Ш შესახვევიახვევი) 4,საბურთალო,47,5,2,1,1,8,27,1,4 m²,temo,5582339,physical,5,True,False,False,171,2025-01-27 15:17:58,2025-03-11 10:38:10,2,44.741638,41.731722
20629527,86000,2,56 m²,ისანი-სამგორი,5,გრ. ლორთქიფანიძის ქ. 3ა,სამგორი,59,1,2,1,1,10,20,1,6 m²,დეველოპმენტ ჯორჯია,2014791,physical,5,True,False,False,62,2025-02-28 14:37:44,2025-03-11 12:58:13,2,44.871471,41.68154
20358556,75000,2,62.5 m²,ვაკე-საბურთალო,4,მირიან მეფის ქ. 18,დიდი დიღომი,29,1,2,1,1,2,7,1,8 m²,ეკა,627816,physical,1,True,False,False,212,2025-02-01 23:05:03,2025-03-11 10:00:34,2,44.766632,41.786839
20543046,78000,2,54 m²,ვაკე-საბურთალო,4,ა. პოლიტკოვსკაიას ქუჩა (ჯიქია) 46,საბურთალო,47,7,2,1,1,12,20,1,4.5 m²,Oto,5598395,physical,2,True,False,False,37,2025-02-20 10:35:30,2025-03-11 10:19:16,3,44.7093,41.720732
20627095,94000,2,63 m²,გლდანი-ნაძალადევი,1,ხარაძე ევგენის ქუჩა ,გლდანი,2,1,2,1,1,5,8,1,6 m²,ბექა,3392839,physical,2,True,False,False,58,2025-02-28 12:51:06,2025-03-11 13:46:58,2,44.806249,41.788649
20056465,90000,2,97 m²,ისანი-სამგორი,5,შ. ნადირაშვილის ქ. 22,ისანი,53,5,4,2,1,8,23,2,6 m²,ღვთისავარ,708679,physical,2,True,False,False,483,2024-12-20 16:22:52,2025-03-11 08:29:02,2,44.856782,41.671792
20292788,74000,2,48 m²,ისანი-სამგორი,5,ქეთევან წამებულის გამზირი 71,ისანი,53,1,2,1,1,14,16,1,2.4 m²,დათა,3089570,physical,1,True,False,False,683,2025-01-25 16:09:10,2025-03-11 01:10:48,2,44.849498,41.684623
20184035,110500,2,62.3 m²,ვაკე-საბურთალო,4,შარტავას ქ. 43,საბურთალო,47,7,2,1,1,14,37,1,10 m²,ჯინა,5525243,physical,1,True,False,False,965,2025-01-13 15:36:03,2025-03-10 23:39:47,2,44.772387,41.728121
20730173,69000,2,48 m²,დიდუბე-ჩუღურეთი,3,ნ. ბოხუას ქ. ,დიღმის მასივი,24,1,2,1,1,3,11,,8 m²,გულიკო,987192,physical,1,True,False,False,2430,2025-03-10 21:39:35,2025-03-10 21:46:45,2,44.771725,41.780261
19284382,120274,2,78.1 m²,ვაკე-საბურთალო,4,შ. ნუცუბიძის ქ. 125ა,საბურთალო,47,5,3,2,1,15,25,,None m²,ირაკლი დოლიძე,3212079,physical,1,True,False,False,570,2024-09-24 12:45:02,2025-03-10 16:13:37,3,44.732638,41.727152
20681838,129000,2,60 m²,ვაკე-საბურთალო,4,ა. პოლიტკოვსკაიას ქუჩა (ჯიქია) 2,საბურთალო,47,,3,2,1,9,14,,None m²,სოფო,4879732,physical,1,True,False,False,87,2025-03-05 21:39:10,2025-03-10 17:41:18,2,44.716931,41.719621
20721220,120000,2,77 m²,ვაკე-საბურთალო,4,პ. იბერის ქ. 22ა,დიდი დიღომი,29,1,4,,1,14,17,1,8 m²,სოფო,4886019,physical,2,True,False,False,16,2025-03-10 13:43:35,2025-03-10 13:43:37,2,44.755327,41.793228
19454370,85000,2,45 m²,დიდუბე-ჩუღურეთი,3,მირცხულავას ქუჩა 11,დიდუბე,23,1,2,1,1,18,20,1,4 m²,თ,1420620,physical,3,True,False,False,1119,2024-10-15 13:15:23,2025-03-10 14:56:54,2,44.774358,41.745232
20520187,118000,2,50 m²,ვაკე-საბურთალო,4,ლეო კვაჭაძის ქუჩა 19,ლისი,43,1,2,1,1,3,4,1,6 m²,სერგი,4072755,physical,1,True,False,False,125,2025-02-18 13:57:45,2025-03-10 20:39:53,2,44.72241,41.74307
19801259,72000,2,40 m²,ვაკე-საბურთალო,4,ა. პოლიტკოვსკაიას ქუჩა (ჯიქია) ,საბურთალო,47,7,2,1,1,5,18,2,5 m²,ეკატერინე,4258850,physical,2,True,False,False,485,2024-11-21 23:42:22,2025-03-10 13:40:40,2,44.7093,41.720732
20646788,85000,2,62.5 m²,ისანი-სამგორი,5,მ. გახოკიძის ქ. ,ვარკეთილი,52,1,3,2,1,5,6,1,5 m²,ნნნ,3221972,physical,4,True,False,False,135,2025-03-02 19:27:23,2025-03-10 12:39:04,2,44.887183,41.701123
20317862,82000,2,77 m²,ვაკე-საბურთალო,4,მირიან მეფის ქ. ,დიდი დიღომი,29,1,3,2,1,2,5,1,7 m²,ნნნ,3221972,physical,4,True,False,False,379,2025-01-28 18:19:55,2025-03-10 12:39:02,2,44.73744,41.788571
20409754,75000,2,41 m²,ვაკე-საბურთალო,4,ა. პოლიტკოვსკაიას ქუჩა (ჯიქია) 41ა,საბურთალო,47,1,2,1,1,8,8,1,4 m²,g,3163792,physical,1,True,False,False,609,2025-02-06 21:35:59,2025-03-10 11:29:14,2,44.7093,41.720732
20694615,109000,2,78 m²,ვაკე-საბურთალო,4,ჟვანია ნ. ქ. ,ვაკე,38,6,3,2,1,6,12,1,4 m²,ქრისტინე,1827271,physical,2,True,False,False,31,2025-03-06 19:25:59,2025-03-10 11:58:16,2,44.771365,41.702317
20076975,62000,2,46 m²,ვაკე-საბურთალო,4,დავარის ქ. 66,დიდი დიღომი,29,,2,1,1,4,7,,None m²,ლალი,997515,physical,2,True,False,False,413,2024-12-23 16:53:47,2025-03-10 11:47:16,2,44.756651,41.785814
20571614,120000,2,86 m²,ძველი თბილისი,6,გულუას ქ. ,ორთაჭალა,57,7,3,2,1,9,20,1,8 m²,სოფო,2197411,physical,1,True,False,False,42,2025-02-22 15:51:45,2025-03-10 22:35:26,2,44.82743,41.679427
19892976,60000,2,51 m²,ვაკე-საბურთალო,4,ბობ უოლშის ქუჩა 42,დიღომი 1-9,30,3,2,1,1,2,8,1,6 m²,ნიტა,3958262,physical,1,True,False,False,202,2024-12-02 22:00:25,2025-03-10 10:28:22,2,44.781719,41.796113
19714928,61000,2,48.3 m²,ვაკე-საბურთალო,4,არჩილ მეფის ქ. 3,დიდი დიღომი,29,1,2,1,1,10,13,1,4.1 m²,ნინო,3131374,physical,1,True,False,False,529,2024-11-13 16:04:10,2025-03-10 10:39:40,2,44.740056,41.792456
20484961,74400,2,62 m²,ძველი თბილისი,6,ბ. კალანდაძის ქ. ,ორთაჭალა,57,5,2,1,2,3,8,,None m²,შოთა,108685,physical,1,True,False,False,221,2025-02-14 13:27:30,2025-03-10 10:24:20,2,44.82188,41.681069
20430826,110000,2,48.2 m²,ვაკე-საბურთალო,4,გამრეკელი ირაკლის ქ. ,საბურთალო,47,1,2,1,1,2,6,1,5 m²,ნათია,2036513,physical,1,True,False,False,267,2025-02-09 16:55:49,2025-03-10 17:57:42,2,44.736845,41.72851
19115031,99900,2,57.3 m²,ვაკე-საბურთალო,4,ა. პოლიტკოვსკაიას ქუჩა (ჯიქია) 22ა,საბურთალო,47,1,2,1,1,3,12,1,10 m²,დათო,4106028,physical,2,True,False,False,951,2024-09-02 17:42:27,2025-03-10 01:44:59,2,44.7093,41.720732
20601747,68000,2,68.28 m²,ვაკე-საბურთალო,4,ნინო აბაშიძე-ორბელიანის ქუჩა 59,დიდი დიღომი,29,1,3,2,1,5,5,1,5.7 m²,თორნიკე,5371138,physical,1,True,False,False,201,2025-02-25 22:37:56,2025-03-09 22:03:19,2,44.750506,41.78555
20716287,68000,2,44 m²,ვაკე-საბურთალო,4,სტრაბონის ქ. 30,დიდი დიღომი,29,1,2,1,1,6,9,1,4 m²,ანა,5596914,physical,1,True,False,False,35,2025-03-09 18:14:35,2025-03-09 18:14:36,2,44.743259,41.786926
20716275,72000,2,58 m²,ვაკე-საბურთალო,4,მირიან მეფის ქ. ,დიდი დიღომი,29,7,2,1,1,6,7,1,8 m²,ლაზარე,4702992,physical,1,True,False,False,12,2025-03-09 18:13:09,2025-03-09 18:13:11,2,44.766632,41.786839
20234587,65000,2,59 m²,ვაკე-საბურთალო,4,დემეტრე თავდადებულის ქუჩა ,დიდი დიღომი,29,7,2,1,1,10,12,,None m²,ემზარი,829507,physical,1,True,False,False,75,2025-01-19 20:22:43,2025-03-08 21:31:46,2,44.749515,41.795669
20514842,58190,2,50.6 m²,გლდანი-ნაძალადევი,1,ქერჩის ქ. 6ა,გლდანი,2,5,2,1,1,9,12,1,8 m²,თაზო,191906,physical,1,True,False,False,131,2025-02-17 19:09:11,2025-03-08 12:06:04,2,44.80777,41.794012
20589473,125843.7,2,71.9 m²,ვაკე-საბურთალო,4,ქავთარაძის ქ. 20ა,საბურთალო,47,,3,2,1,16,22,1,18 m²,ნინი,4170413,physical,2,True,False,False,72,2025-02-24 22:49:30,2025-03-07 13:26:39,3,44.728947,41.72118
20033022,78000,2,56 m²,ვაკე-საბურთალო,4,მინდელის ქუჩა ,საბურთალო,47,7,2,1,,5,15,1,5 m²,ლალი,3077305,physical,3,True,False,False,389,2024-12-18 14:00:15,2025-03-09 17:29:41,3,44.711868,41.724813
20698388,94000,2,76.2 m²,ვაკე-საბურთალო,4,გიორგი ბრწყინვალეს ქ. 54,დიდი დიღომი,29,,3,2,2,11,19,,1 m²,ნინო,2211302,physical,1,True,False,False,46,2025-03-07 13:08:09,2025-03-07 13:08:11,2,44.751333,41.789277
20543290,60000,2,50.2 m²,გლდანი-ნაძალადევი,1,ქერჩის ქ. 14,გლდანი,2,5,2,1,1,9,13,1,8.5 m²,მაია,992736,physical,1,True,False,False,155,2025-02-20 11:22:30,2025-03-06 10:32:28,2,44.80777,41.794012
17414161,78000,2,81.12 m²,ვაკე-საბურთალო,4,დემეტრე თავდადებულის ქუჩა 38ბ,დიდი დიღომი,29,6,3,2,2,10,11,0,None m²,ლალი,3512259,physical,1,True,False,False,521,2024-02-09 14:57:54,2025-03-05 21:57:02,2,44.787526,41.708692
20308847,82000,2,53 m²,ისანი-სამგორი,5,აბრამიშვილის ქუჩა 36,ისანი,53,1,2,1,2,4,12,1,8 m²,რევაზი,3519416,physical,1,True,False,False,987,2025-01-28 08:42:00,2025-03-07 07:23:34,2,44.846268,41.672953
19683753,62000,2,54 m²,ვაკე-საბურთალო,4,დემეტრე თავდადებულის ქუჩა 38გ,დიდი დიღომი,29,1,2,1,1,4,12,1,7 m²,დემეტრე,4332383,physical,2,True,False,False,318,2024-11-10 16:47:12,2025-03-09 21:08:00,3,44.746478,41.792553
20682948,85650,2,57.1 m²,ვაკე-საბურთალო,4,ა. პოლიტკოვსკაიას ქუჩა (ჯიქია) 34,საბურთალო,47,5,2,1,,18,18,,None m²,გიორგი,3169211,physical,1,True,False,False,46,2025-03-06 11:33:19,2025-03-06 11:36:03,2,44.706305,41.720565
20676634,102000,2,68 m²,გლდანი-ნაძალადევი,1,მარსელის ქ. 1,გლდანი,2,3,2,1,,6,18,,None m²,Toma,5286870,physical,1,True,False,False,20,2025-03-05 16:02:52,2025-03-05 16:02:54,2,44.805753,41.79426
20574334,106000,2,50 m²,ვაკე-საბურთალო,4,გიორგი დანელიას ქუჩა 4,საბურთალო,47,1,2,1,1,7,8,1,17 m²,Nini,5604761,physical,2,True,False,False,176,2025-02-23 12:20:08,2025-03-09 14:47:14,2,44.707071,41.718086
20669475,120000,2,56 m²,ვაკე-საბურთალო,4,მარშალი გელოვანი გამზირი 1,საბურთალო,47,1,2,1,1,9,10,1,3 m²,xx,3214554,physical,1,True,False,False,18,2025-03-04 23:29:31,2025-03-04 23:32:18,2,44.770833,41.738077
20184938,85000,2,61 m²,ძველი თბილისი,6,საინგილოს ქუჩა 53,ავლაბარი,62,1,2,1,1,4,6,2,6 m²,ბ,41538,physical,2,True,False,False,600,2025-01-13 16:16:01,2025-03-03 20:40:17,2,44.820813,41.697537
20378734,125000,2,100 m²,ვაკე-საბურთალო,4,ა. ვარაზის ქ. ,ლისი,43,5,3,2,1,2,14,2,6 m²,ბაჩო,982055,physical,1,True,False,False,145,2025-02-04 15:10:33,2025-03-03 20:07:38,2,44.717774,41.737111
19011006,126000,2,79 m²,ვაკე-საბურთალო,4,ბობ უოლშის ქუჩა 32,დიღომი 1-9,30,1,3,2,1,5,21,1,5 m²,Ekaterina,3719039,physical,1,True,False,False,428,2024-08-17 11:04:35,2025-02-24 11:37:07,2,44.781719,41.796113
18479940,89000,2,71.2 m²,გლდანი-ნაძალადევი,1,shengelia,გლდანი,2,7,3,2,1,9,43,2,11 m²,Data,3633620,physical,3,False,False,False,227,2024-06-03 22:35:57,2025-03-12 11:14:40,3,44.815416,41.78979
20617027,120000,2,76 m²,ვაკე-საბურთალო,4,ბობ უოლშის ქუჩა ,დიღომი 1-9,30,1,3,2,1,8,9,2,8 m²,გიორგი,3310527,physical,1,True,False,False,130,2025-02-27 14:18:46,2025-02-27 14:53:22,2,44.781719,41.796113
18471716,89000,2,71.2 m²,გლდანი-ნაძალადევი,1,shengelia,გლდანი,2,7,3,2,1,9,23,2,11 m²,Data,3633620,physical,3,False,False,False,213,2024-06-02 22:02:40,2025-03-12 11:14:40,3,44.815518,41.78921
20743757,63000,2,45 m²,ისანი-სამგორი,5,ვარკეთილი 3- 4 მ/რ ,ვარკეთილი,52,1,2,1,1,8,9,1,3 m²,ირმა,5400074,physical,3,False,False,False,0,2025-03-12 11:14:33,2025-03-12 11:14:35,2,44.876868,41.709606
20743701,58500,2,45 m²,ისანი-სამგორი,5,გუდამაყრის ქ. 27,ვარკეთილი,52,,2,1,,3,3,,None m²,უჩა,994478,physical,1,False,False,False,0,2025-03-12 11:03:43,2025-03-12 11:03:45,2,44.800285,41.765481
20743734,63000,2,45 m²,ისანი-სამგორი,5,ვ. კუპრაძის ქ. 72,ვარკეთილი,52,1,2,1,1,8,9,1,3 m²,ირმა,5400074,physical,3,False,False,False,0,2025-03-12 11:10:57,2025-03-12 11:10:58,2,44.881128,41.715241
18441764,69900,2,51 m²,გლდანი-ნაძალადევი,1,გლდანი 3 მ/რნი ვლ.ნანეიშვილის 23,გლდანი,2,1,2,1,1,14,15,1,2 m²,mamuka,3121177,physical,2,False,False,False,1585,2024-05-29 10:38:14,2025-03-12 11:00:34,2,44.787526,41.708692
20541394,93000,2,55 m²,ვაკე-საბურთალო,4,წმ. მოწამე ვასილისკოს ქ. 14,საბურთალო,47,1,2,1,1,5,5,1,5 m²,ანი,4228486,physical,1,False,False,False,149,2025-02-19 18:38:25,2025-03-12 11:00:34,2,44.706606,41.716683
18441911,69900,2,55 m²,ვაკე-საბურთალო,4,დიდი დიღომი - III მ/რ ,დიდი დიღომი,29,1,2,1,1,8,8,1,4 m²,მამუკა,3121177,physical,2,False,False,False,713,2024-05-29 11:11:53,2025-03-12 11:00:34,2,44.753942,41.794856
17844682,94900,2,65 m²,ვაკე-საბურთალო,4,მარშალი გელოვანი გამზირი ,საბურთალო,47,7,2,1,1,10,10,1,8 m²,მ,3389542,physical,2,False,False,False,1837,2024-03-22 00:17:50,2025-03-12 11:00:34,2,44.769566,41.752838
20348205,82000,2,45 m²,დიდუბე-ჩუღურეთი,3,მირცხულავას ქუჩა 9,დიდუბე,23,1,2,1,1,19,25,,6 m²,ნიკა,3839086,physical,1,False,False,False,277,2025-01-31 16:00:42,2025-03-12 11:00:34,2,44.774358,41.745232
20516174,95000,2,51 m²,ვაკე-საბურთალო,4,შ. ნუცუბიძის ქ. ,საბურთალო,47,5,2,1,1,16,21,1,5 m²,k,3452104,physical,1,False,False,False,105,2025-02-18 00:15:11,2025-03-12 11:00:34,2,44.73791,41.72745
20743665,90000,2,51.3 m²,ვაკე-საბურთალო,4,კამანის ქ. ,საბურთალო,47,1,2,1,1,4,15,1,3 m²,სოფო,3689346,physical,1,False,False,False,0,2025-03-12 10:53:53,2025-03-12 10:53:54,2,44.744431,41.730847
20604069,83500,2,90.55 m²,ვაკე-საბურთალო,4,დემეტრე თავდადებულის ქუჩა 38ბ,დიდი დიღომი,29,,3,2,,10,12,,None m²,ანი,4948206,physical,1,False,False,False,32,2025-02-26 12:52:33,2025-03-12 10:55:21,2,44.749515,41.795669
20410845,66000,2,42 m²,ვაკე-საბურთალო,4,ბობ უოლშის ქუჩა ,დიღომი 1-9,30,1,2,1,1,2,8,1,4 m²,natia,2321602,physical,2,False,False,False,157,2025-02-07 11:35:03,2025-03-12 10:49:35,2,44.781719,41.796113
17023395,72300,2,48.2 m²,დიდუბე-ჩუღურეთი,3,მირცხულავას ქუჩა ,დიდუბე,23,5,2,1,1,6,25,0,None m²,გიორგი,493641,physical,1,False,False,False,523,2023-12-25 09:30:24,2025-03-12 10:46:08,3,44.787526,41.708692
20385128,110000,2,64.95 m²,გლდანი-ნაძალადევი,1,ნანეიშვილი ვლ. ქუჩა 23ა,გლდანი,2,1,3,2,1,13,14,1,6.7 m²,დავითი,3966425,physical,1,True,False,False,166,2025-02-04 20:15:59,2025-03-03 14:09:14,2,44.828759,41.794038
20713502,65000,2,58 m²,ვაკე-საბურთალო,4,დიდი დიღომი - III მ/რ ,დიდი დიღომი,29,1,3,2,,3,14,,None m²,მესაკუთრე,3879186,physical,5,False,False,False,55,2025-03-08 22:39:13,2025-03-12 10:46:10,2,44.753942,41.794856
20743642,62500,2,41 m²,ვაკე-საბურთალო,4,მირიან მეფის ქ. ,დიდი დიღომი,29,1,2,1,1,9,13,1,2 m²,გ,3630468,physical,2,False,False,False,0,2025-03-12 10:48:23,2025-03-12 10:48:25,2,44.766632,41.786839
20555671,91200,2,57 m²,ვაკე-საბურთალო,4,მინდელის ქუჩა ,საბურთალო,47,7,2,1,1,6,13,1,7 m²,ნინო,3189156,physical,1,True,False,False,61,2025-02-20 20:09:53,2025-02-20 20:09:54,2,44.711868,41.724813
20205428,70000,2,62 m²,ვაკე-საბურთალო,4,არჩილ მეფის ქ. 7ა,დიდი დიღომი,29,,2,1,1,6,11,1,4 m²,ლევანი,3097550,physical,1,False,False,False,163,2025-01-15 21:04:52,2025-03-12 10:36:53,2,44.740056,41.792456
20503727,56400,2,47 m²,ვაკე-საბურთალო,4,აბაშიძე-ორბელიანი ნ. ქ. ,დიდი დიღომი,29,7,2,1,1,12,12,1,4 m²,ბესო,2283480,physical,1,False,False,False,37,2025-02-17 11:33:51,2025-03-12 10:21:21,2,44.750114,41.78418
20572809,86000,2,56 m²,ვაკე-საბურთალო,4,ა. პოლიტკოვსკაიას ქუჩა (ჯიქია) 40ა,საბურთალო,47,7,2,1,1,9,11,1,4 m²,გ,4549538,physical,2,False,False,False,47,2025-02-22 17:54:50,2025-03-12 10:30:55,2,44.7093,41.720732
20256999,57500,2,48 m²,ძველი თბილისი,6,ნადიკვარის დას; 2-ქ 34,ორთაჭალა,57,5,2,1,1,1,8,,None m²,Ana,5432505,physical,4,False,False,False,281,2025-01-22 11:20:27,2025-03-12 10:17:09,2,44.820083,41.681871
20296893,46000,2,44.9 m²,ვაკე-საბურთალო,4,არჩილ მეფის ქ. ,დიდი დიღომი,29,7,2,1,1,12,13,1,5 m²,Georgi,5294814,physical,5,False,False,False,175,2025-01-26 17:50:52,2025-03-12 10:12:34,2,44.740056,41.792456
19557398,70000,2,51.3 m²,ვაკე-საბურთალო,4,პ. იბერის ქ. 22,დიდი დიღომი,29,1,2,1,1,8,12,,None m²,გიო,5294814,physical,5,False,False,False,416,2024-10-27 22:56:29,2025-03-12 10:12:33,2,44.755322,41.79198
20251677,82500,2,52 m²,ვაკე-საბურთალო,4,ქავთარაძის ქ. 20,საბურთალო,47,1,2,1,1,14,16,,None m²,ანა,5432363,physical,3,False,False,False,1689,2025-01-21 15:54:09,2025-03-12 10:13:11,2,44.728947,41.72118
20743556,84000,2,60 m²,ისანი-სამგორი,5,ბერი გაბრიელ სალოსის VI შეს. ,ისანი,53,1,2,1,1,10,11,1,6 m²,საბ,4494390,physical,2,False,False,False,0,2025-03-12 10:11:36,2025-03-12 10:11:38,2,44.871598,41.671552
20717247,108000,2,60 m²,ვაკე-საბურთალო,4,მინდელის ქუჩა 12,საბურთალო,47,1,2,1,1,14,15,1,4 m²,ეკატერინე,5044673,physical,1,False,False,False,9,2025-03-10 00:21:01,2025-03-12 10:09:49,2,44.708052,41.722069
20407739,81500,2,56.22 m²,ვაკე-საბურთალო,4,ბობ უოლშის ქუჩა ,დიღომი 1-9,30,1,3,2,1,2,12,1,3 m²,ანო,5453430,physical,4,False,False,False,206,2025-02-06 18:04:33,2025-03-12 10:10:16,2,44.781719,41.796113
20257352,71000,2,49.83 m²,ვაკე-საბურთალო,4,მირიან მეფის ქ. ,დიდი დიღომი,29,1,2,1,1,8,21,1,4 m²,ana,5432584,physical,4,False,False,False,492,2025-01-22 11:46:36,2025-03-12 10:08:56,2,44.766632,41.786839
20449439,121000,2,61 m²,ვაკე-საბურთალო,4,ბ. კვერნაძის ქ. 29,საბურთალო,47,1,2,1,1,2,7,,None m²,Ana,5432450,physical,3,False,False,False,141,2025-02-11 14:46:20,2025-03-12 10:15:19,2,44.781176,41.719338
20743571,84000,2,60 m²,გლდანი-ნაძალადევი,1,მარსელის ქ. 10,გლდანი,2,1,2,1,1,20,20,1,8 m²,თაია შალოშვილი,3219787,physical,1,False,False,False,0,2025-03-12 10:23:59,2025-03-12 10:24:01,2,44.805518,41.794121
20256839,104000,2,56.5 m²,ვაკე-საბურთალო,4,ცაცხვების ქუჩა ,ლისი,43,1,2,1,1,2,5,1,4 m²,ana,5432529,physical,4,False,False,False,223,2025-01-22 10:50:48,2025-03-12 10:06:01,2,44.749681,41.740869
20256748,75500,2,52.8 m²,ვაკე-საბურთალო,4,ვეფხისტყაოსნის ქ. ,დიდი დიღომი,29,1,2,1,1,10,14,1,4 m²,ანო,4908536,physical,4,False,False,False,141,2025-01-22 10:17:45,2025-03-12 10:02:55,2,44.757697,41.786818
19712460,87360,2,62.4 m²,ძველი თბილისი,6,ნადიკვარის დას; 2-ქ 34,ორთაჭალა,57,5,2,1,1,8,8,1,3 m²,leyla,5521732,physical,4,False,False,False,97,2024-11-13 14:06:21,2025-03-12 10:00:18,3,44.820083,41.681871
20256797,67000,2,56.4 m²,დიდუბე-ჩუღურეთი,3,ნ. ბოხუას ქ. ,დიღმის მასივი,24,5,2,1,1,12,16,1,4 m²,ana,4908536,physical,4,False,False,False,236,2025-01-22 10:39:05,2025-03-12 10:02:56,3,44.779214,41.780081
19688545,68000,2,31.5 m²,ვაკე-საბურთალო,4,ა. პოლიტკოვსკაიას ქუჩა (ჯიქია) 2ბ,საბურთალო,47,1,1,1,1,11,14,,None m²,შოკა,3622534,physical,1,False,False,False,1189,2024-11-11 13:57:59,2025-03-12 10:00:18,2,44.7093,41.720732
20508597,108000,2,81.1 m²,ვაკე-საბურთალო,4,ა. ვარაზის ქ. 99ე,ლისი,43,,3,2,1,3,5,1,9.2 m²,ირაკლი,4188931,physical,3,False,False,False,37,2025-02-17 15:12:57,2025-03-12 10:00:18,2,44.717774,41.737111
20188857,77200,2,38.6 m²,ვაკე-საბურთალო,4,მარშალი გელოვანი გამზირი 6,საბურთალო,47,1,1,1,1,10,23,1,4 m²,ნათია,4072429,physical,3,False,False,False,131,2025-01-14 00:09:37,2025-03-12 10:00:18,2,44.771304,41.751708
19086757,120000,2,90.3 m²,ვაკე-საბურთალო,4,თეიმურაზ I ქ. 5,დიდი დიღომი,29,1,4,2,1,11,11,1,13 m²,გურამი,3261457,physical,1,False,False,False,693,2024-08-29 10:31:23,2025-03-12 10:00:18,2,44.748357,41.791069
18541817,120000,2,55.7 m²,ვაკე-საბურთალო,4,ყიფშიძე ნ. ქ. ,ვაკე,38,5,2,1,1,21,23,1,4.9 m²,leila,4330540,physical,3,False,False,False,849,2024-06-12 13:15:21,2025-03-12 10:00:18,3,44.756228,41.713389
20601708,60550,2,86.5 m²,დიდუბე-ჩუღურეთი,3,ნ. ხოშარაულის ქ. ,დიდუბე,23,,3,2,1,3,30,,None m²,გივი,3795374,physical,3,False,False,False,137,2025-02-25 22:25:06,2025-03-12 10:00:18,3,44.779703,41.732513
20573714,73500,2,54.9 m²,ძველი თბილისი,6,ვახტანგ გორგასლის ქუჩა ,კრწანისი,65,5,2,,1,6,19,,None m²,Diana Blok,5604521,physical,2,False,False,False,31,2025-02-22 21:09:47,2025-03-12 10:00:18,3,44.838413,41.67101
20507060,48500,2,42 m²,ისანი-სამგორი,5,ვარკეთილის მასივი - ზემო პლატო ,ვარკეთილი,52,7,2,1,2,8,12,1,5.5 m²,ლიკა,984902,physical,2,False,False,False,80,2025-02-17 13:57:50,2025-03-12 09:51:12,2,44.882598,41.692589
20613137,51000,2,43.2 m²,ვაკე-საბურთალო,4,თეიმურაზ I ქ. 1,დიდი დიღომი,29,5,2,1,1,13,14,1,6 m²,გვანცა,608193,physical,1,False,False,False,97,2025-02-26 23:31:48,2025-03-12 09:00:19,2,44.748915,41.794397
20141534,67875,2,54.3 m²,ვაკე-საბურთალო,4,ა. ვარაზის ქ. 42,ლისი,43,5,2,1,1,2,5,1,3.7 m²,მარიამი,3020340,physical,1,False,False,False,163,2025-01-07 16:38:28,2025-03-12 09:00:19,2,44.703943,41.740844
17714091,64000,2,66 m²,ვაკე-საბურთალო,4,არჩილ მეფის ქ. ,დიდი დიღომი,29,5,2,1,1,13,13,1,4 m²,მიშა,472304,physical,1,False,False,False,364,2024-03-10 12:11:28,2025-03-12 09:00:19,2,44.740056,41.792456
19776262,128000,2,89.7 m²,ვაკე-საბურთალო,4,ფარნავაზ მეფის გამზ. ,დიდი დიღომი,29,1,4,3,1,13,18,,None m²,გია,608514,physical,1,False,False,False,1058,2024-11-19 19:57:19,2025-03-12 08:55:36,2,44.764876,41.792558
20007532,125810,2,109.4 m²,გლდანი-ნაძალადევი,1,მარატ ნოზაძის ქუჩა 12,გლდანი,2,7,3,2,1,9,12,1,29 m²,ირაკლი,1511720,physical,2,False,False,False,172,2024-12-15 00:26:24,2025-03-12 09:25:10,3,44.821034,41.790862
18825257,45000,2,50 m²,ისანი-სამგორი,5,ბერი გაბრიელ სალოსის გამზ. 130,ისანი,53,7,2,1,1,12,18,1,5 m²,ლევანი,1516095,physical,5,False,False,False,1009,2024-07-22 11:58:10,2025-03-12 09:42:41,3,44.866515,41.672294
20070348,80000,2,44 m²,ვაკე-საბურთალო,4,თ. ნადარეიშვილის ქ. 8,საბურთალო,47,1,2,1,1,2,10,1,3 m²,ბელა,2208544,physical,1,False,False,False,602,2024-12-23 10:38:23,2025-03-12 08:03:44,2,44.744884,41.730401
20125309,75000,2,38 m²,დიდუბე-ჩუღურეთი,3,ა. ბელიაშვილის ქ. 70,დიღმის მასივი,24,,2,,1,9,22,1,5 m²,დავითი,974913,physical,2,False,False,False,337,2024-12-31 10:34:48,2025-03-12 08:31:35,2,44.779259,41.771286
19143382,65000,2,35 m²,დიდუბე-ჩუღურეთი,3,ბელიაშვილი ქუჩა 72,დიღმის მასივი,24,3,1,,1,5,22,1,5 m²,დავითი,974913,physical,2,False,False,False,1521,2024-09-06 10:06:05,2025-03-12 08:31:42,2,44.779277,41.77138
19799436,93730,2,72.1 m²,ვაკე-საბურთალო,4,გაგარინის ქ. ,საბურთალო,47,5,3,2,1,3,9,2,1.7 m²,დავითი,2311070,physical,5,False,False,False,2395,2024-11-21 18:27:28,2025-03-12 02:57:14,2,44.769859,41.735444
19798431,96320,2,68.8 m²,ვაკე-საბურთალო,4,გაგარინის ქ. ,საბურთალო,47,5,3,2,1,6,9,3,6.8 m²,დავითი,2311070,physical,5,False,False,False,1463,2024-11-21 17:46:43,2025-03-12 02:57:15,3,44.769859,41.735444
19958195,69525,2,51.5 m²,ძველი თბილისი,6,სულიკო თორთლაძის ქ.,ორთაჭალა,57,7,2,1,1,12,15,1,10 m²,ლიზი,4920811,physical,2,False,False,False,18,2024-12-10 12:12:26,2025-03-12 01:44:33,2,44.81809,41.680466
20743403,71500,2,40.98 m²,ვაკე-საბურთალო,4,პ. იბერის ქ. 26,დიდი დიღომი,29,,2,,,5,12,,None m²,ალექსანდრე,4406159,physical,1,False,False,False,3,2025-03-12 01:11:38,2025-03-12 01:11:40,2,44.754507,41.79456
19958456,77000,2,55 m²,ძველი თბილისი,6,სულიკო თორთლაძის ქ.,ორთაჭალა,57,7,2,1,1,12,15,1,10 m²,ლიზი,4920811,physical,2,False,False,False,44,2024-12-10 12:25:12,2025-03-12 01:43:57,2,44.817898,41.680504
18965373,63000,2,60 m²,ვაკე-საბურთალო,4,მირიან მეფის ქ. ,დიდი დიღომი,29,7,2,1,1,6,12,1,6 m²,ნიკა,4661281,physical,5,False,False,False,966,2024-08-10 11:40:25,2025-03-12 06:00:40,2,44.766632,41.786839
20743368,105000,2,75.3 m²,ვაკე-საბურთალო,4,დიდი დიღომი - III მ/რ ,დიდი დიღომი,29,,3,2,1,6,9,,None m²,Сурен,4655259,physical,1,False,False,False,13,2025-03-12 00:42:00,2025-03-12 00:42:01,2,44.753942,41.794856
19891401,110000,2,55 m²,ვაკე-საბურთალო,4,ა. პოლიტკოვსკაიას ქუჩა (ჯიქია) 2,საბურთალო,47,1,2,1,1,14,14,,None m²,მარიამი,4734276,physical,3,False,False,False,1086,2024-12-02 18:17:12,2025-03-12 00:00:21,2,44.7093,41.720732
20743446,76000,2,60 m²,გლდანი-ნაძალადევი,1,ხიზაბავრას ქ. ,გლდანი,2,1,2,1,1,11,20,1,7 m²,დავით,4698900,physical,5,False,False,False,1,2025-03-12 03:06:23,2025-03-12 03:06:25,2,44.810975,41.790066
20469532,111300,2,53 m²,ვაკე-საბურთალო,4,ანჯაფარიძე ზ. II შეს. ,საბურთალო,47,1,2,1,1,18,22,,None m²,L,5466476,physical,4,False,False,False,175,2025-02-13 11:28:29,2025-03-12 00:00:21,2,44.715885,41.723157
19106712,93000,2,67 m²,ვაკე-საბურთალო,4,არჩილ მეფის ქ. 8გ,დიდი დიღომი,29,1,4,3,1,9,12,2,5.6 m²,ლაშა,21387,physical,1,False,False,False,804,2024-09-01 13:06:15,2025-03-12 00:00:21,2,44.740056,41.792456
19883124,62000,2,52.5 m²,ვაკე-საბურთალო,4,გიორგი ბრწყინვალეს ქ. 50,დიდი დიღომი,29,1,2,1,1,14,15,1,9 m²,ნინი,4202620,physical,5,False,False,False,152,2024-12-01 22:59:36,2025-03-12 00:00:21,2,44.759855,41.788711
19875737,86000,2,54.6 m²,გლდანი-ნაძალადევი,1,მარატ ნოზაძის ქუჩა 21,გლდანი,2,1,2,1,1,3,11,1,7.9 m²,ირაკლი,5509262,physical,2,False,False,False,435,2024-11-30 09:10:59,2025-03-12 00:00:21,2,44.821034,41.790862
20479578,92000,2,43.3 m²,ვაკე-საბურთალო,4,ა. პოლიტკოვსკაიას ქუჩა (ჯიქია) ,საბურთალო,47,1,2,1,1,2,16,,None m²,L,5466476,physical,4,False,False,False,136,2025-02-13 18:16:36,2025-03-12 00:00:21,2,44.7093,41.720732
20040083,73000,2,53 m²,ვაკე-საბურთალო,4,ნესტან-დარეჯანის ქ. 12,დიდი დიღომი,29,1,2,1,1,5,6,1,4 m²,ნონა,5373891,physical,3,False,False,False,267,2024-12-18 22:46:43,2025-03-12 00:00:21,2,44.749155,41.782371
20386633,86000,2,60.88 m²,ვაკე-საბურთალო,4,დემეტრე თავდადებულის ქუჩა 38გ,დიდი დიღომი,29,1,3,2,1,10,11,1,8 m²,ირაკლი,5509262,physical,2,False,False,False,76,2025-02-05 11:40:13,2025-03-12 00:00:21,2,44.749515,41.795669
20654224,99800,2,43 m²,ვაკე-საბურთალო,4,გაზაფხულის ქ. ,საბურთალო,47,1,2,1,1,12,20,1,4 m²,მარიამი,5288425,physical,2,False,False,False,213,2025-03-03 17:37:44,2025-03-12 00:00:21,2,44.744482,41.729817
19440740,66000,2,60 m²,ძველი თბილისი,6,კრწანისის ქ. 21,კრწანისი,65,6,3,2,1,7,8,,None m²,ააა,4237996,physical,3,False,False,False,1740,2024-10-13 00:17:37,2025-03-12 00:00:21,2,44.815514,41.672959
20605828,99760,2,68.8 m²,ვაკე-საბურთალო,4,გაგარინის ქ. ,საბურთალო,47,5,3,2,1,6,9,,None m²,Luna,5507554,physical,4,False,False,False,221,2025-02-26 14:11:11,2025-03-12 00:00:21,2,44.769859,41.735444
20610854,105000,2,57 m²,ძველი თბილისი,6,ნადიკვარის დას; 2-ქ ,ორთაჭალა,57,1,2,1,1,8,8,1,4 m²,მარიამი,5288425,physical,2,False,False,False,221,2025-02-26 17:55:29,2025-03-12 00:00:21,2,44.818409,41.679916
20134863,75000,2,53 m²,ვაკე-საბურთალო,4,ნესტან-დარეჯანის ქ. 12,დიდი დიღომი,29,1,3,2,1,2,7,2,4 m²,ნონა,5373891,physical,3,False,False,False,331,2025-01-05 21:28:12,2025-03-12 00:00:21,2,44.749155,41.782371
19774164,52000,2,55 m²,ვაკე-საბურთალო,4,არჩილ მეფის ქ. ,დიდი დიღომი,29,7,2,1,1,10,12,1,9 m²,გიორგი,4923627,physical,1,False,False,False,1036,2024-11-19 17:42:42,2025-03-12 00:00:21,2,44.737956,41.793577
20729338,110000,2,58 m²,ვაკე-საბურთალო,4,ა. პოლიტკოვსკაიას ქუჩა (ჯიქია) ,საბურთალო,47,1,2,1,1,3,12,,None m²,Luna,5466476,physical,4,False,False,False,117,2025-03-10 18:51:03,2025-03-12 00:00:21,2,44.7093,41.720732
19831519,115000,2,60 m²,ვაკე-საბურთალო,4,ოთარ ლორთქიფანიძის ქუჩა ,საბურთალო,47,,3,2,1,1,7,,None m²,სოფიო,2189897,physical,2,False,False,False,224,2024-11-26 11:16:54,2025-03-12 00:00:21,2,44.739213,41.719764
19106712,93000,2,67 m²,ვაკე-საბურთალო,4,არჩილ მეფის ქ. 8გ,დიდი დიღომი,29,1,4,3,1,9,12,2,5.6 m²,ლაშა,21387,physical,1,False,False,False,804,2024-09-01 13:06:15,2025-03-12 00:00:21,2,44.740056,41.792456
19891401,110000,2,55 m²,ვაკე-საბურთალო,4,ა. პოლიტკოვსკაიას ქუჩა (ჯიქია) 2,საბურთალო,47,1,2,1,1,14,14,,None m²,მარიამი,4734276,physical,3,False,False,False,1086,2024-12-02 18:17:12,2025-03-12 00:00:21,2,44.7093,41.720732
20713907,65500,2,69.1 m²,ისანი-სამგორი,5,ქინძმარაულის II-შესახვევი ,სამგორი,59,7,3,2,1,7,12,1,10 m²,მმ,4394402,physical,1,False,False,False,70,2025-03-09 11:33:16,2025-03-12 00:00:21,2,44.888388,41.67444
18853164,57500,2,50 m²,ისანი-სამგორი,5,ა. ლაისტის ქ. ,ორთაჭალა,57,,2,1,,10,10,1,9 m²,ელგუჯა,3514625,physical,3,False,False,False,1426,2024-07-25 12:31:13,2025-03-12 00:00:21,2,44.839404,41.674875
20709149,60000,2,38 m²,გლდანი-ნაძალადევი,1,ხიზაბავრას ქ. ,გლდანი,2,1,1,,1,11,12,,None m²,nika,5551595,physical,2,False,False,False,23,2025-03-08 01:21:34,2025-03-12 00:00:21,2,44.80893,41.791459
20515473,95000,2,66 m²,ვაკე-საბურთალო,4,დავარის ქ. 41,დიდი დიღომი,29,1,3,2,1,9,11,,4 m²,სალომე,3741660,physical,1,False,False,False,123,2025-02-17 21:03:58,2025-03-12 00:00:14,2,44.75716,41.786075
19830822,102500,2,82 m²,ძველი თბილისი,6,ა. ლაისტის ქ. ,ორთაჭალა,57,6,3,2,1,1,10,1,13 m²,ელგუჯა,3514625,physical,3,False,False,False,126,2024-11-25 22:27:42,2025-03-12 00:00:21,2,44.839404,41.674875
20424916,66000,2,60 m²,ისანი-სამგორი,5,ვარკეთილის მასივი III - I კვარტ. ,ვარკეთილი,52,,1,,1,4,10,,None m²,როკსანა,3302153,physical,3,False,False,False,57,2025-02-08 14:03:38,2025-03-12 00:00:14,2,44.87981,41.685624
19390055,68100,2,60 m²,ისანი-სამგორი,5,ქინძმარაულის II-შესახვევი ,სამგორი,59,1,3,2,1,10,10,1,4 m²,როკსანა,3302153,physical,3,False,False,False,713,2024-10-07 16:15:49,2025-03-12 00:00:14,2,44.888388,41.67444
19494427,96000,2,67 m²,დიდუბე-ჩუღურეთი,3,დადიანი ც. ქ. 141,ჩუღურეთი,27,2,2,1,1,2,9,2,2 m²,Irakli,882215,physical,1,False,False,False,805,2024-10-19 10:54:45,2025-03-12 00:00:14,2,44.796961,41.734798
20206244,32000,2,37 m²,ისანი-სამგორი,5,ვ. კუპრაძის ქ. ,ვარკეთილი,52,3,2,1,,0,8,,None m²,tiniko,4655427,physical,5,False,False,False,646,2025-01-16 11:31:00,2025-03-12 00:00:14,2,44.872525,41.70453
20181507,120000,2,55 m²,ვაკე-საბურთალო,4,პავლე ასლანიდის ქუჩა ,საბურთალო,47,1,2,1,,9,14,1,3 m²,ელენე,5574972,physical,1,False,False,False,341,2025-01-13 13:21:22,2025-03-12 00:00:14,2,44.781262,41.718789
20609504,91000,2,70.27 m²,ისანი-სამგორი,5,შ. ნადირაშვილის ქ. 34,ისანი,53,1,2,,1,3,27,2,3.63 m²,სოფო,4501907,physical,1,False,False,False,64,2025-02-26 16:58:36,2025-03-12 00:00:14,2,44.856782,41.671792
20242838,61000,2,45 m²,ვაკე-საბურთალო,4,დემეტრე თავდადებულის ქუჩა 38გ,დიდი დიღომი,29,1,2,1,1,10,11,1,5 m²,ანა,4662637,physical,3,False,False,False,194,2025-01-20 17:15:41,2025-03-12 00:00:14,2,44.749515,41.795669
20686191,87700,2,66 m²,ძველი თბილისი,6,ბ. კალანდაძის ქ. ,ორთაჭალა,57,5,2,1,1,5,8,1,12 m²,თამუნა,2304109,physical,3,False,False,False,9,2025-03-06 13:44:53,2025-03-12 00:00:14,2,44.82188,41.681069
20697455,82644,2,58.2 m²,ძველი თბილისი,6,ორთაჭალის ქ 90ა,კრწანისი,65,7,2,1,1,1,6,1,12 m²,თამუნა,2304109,physical,3,False,False,False,13,2025-03-07 12:33:29,2025-03-12 00:00:14,3,44.813489,41.675589
20157567,97000,2,70 m²,ვაკე-საბურთალო,4,სტრაბონის ქ. 18,დიდი დიღომი,29,1,3,2,2,5,10,1,9 m²,ქეთი,627320,physical,1,False,False,False,206,2025-01-09 16:04:37,2025-03-12 00:00:14,2,44.743746,41.786932
20681959,52000,2,53 m²,ისანი-სამგორი,5,დავითაიას ქუჩა ,ვაზისუბანი,51,5,2,1,1,9,12,1,6 m²,ნიკა,4104088,physical,4,False,False,False,53,2025-03-05 22:36:43,2025-03-12 00:00:14,2,44.849809,41.702375
20176482,93100,2,49 m²,ვაკე-საბურთალო,4,ლეო კვაჭაძის ქუჩა 19,ლისი,43,7,2,1,1,3,4,1,9 m²,Nata,3338667,physical,1,False,False,False,129,2025-01-11 19:19:06,2025-03-12 00:00:14,2,44.725793,41.742411
19527726,110000,2,60 m²,ვაკე-საბურთალო,4,მიცკევიჩის ქ. 56,საბურთალო,47,2,2,1,1,2,9,1,10 m²,ანი,5499529,physical,3,False,False,False,665,2024-10-23 13:43:52,2025-03-12 00:00:14,2,44.76555,41.724367
20516153,95000,2,66 m²,ვაკე-საბურთალო,4,დავარის ქ. 41,დიდი დიღომი,29,1,3,2,,9,11,,None m²,ბერიკა,2345216,physical,1,False,False,False,149,2025-02-18 00:03:34,2025-03-12 00:00:14,2,44.756651,41.785814
20096049,38320,2,47.9 m²,დიდუბე-ჩუღურეთი,3,გოგიძე შ. ქ. 4,დიღმის მასივი,24,,2,1,,8,16,,None m²,ეკა,4008354,physical,1,False,False,False,1521,2024-12-25 16:53:57,2025-03-12 00:00:14,3,44.779148,41.778558
18892994,68000,2,53 m²,ისანი-სამგორი,5,ჯავახეთის ქ. ,ვარკეთილი,52,,2,1,1,3,10,,None m²,თინიკო,4655427,physical,5,False,False,False,242,2024-07-30 23:57:08,2025-03-12 00:00:14,2,44.870633,41.689603
19956429,67000,2,53 m²,დიდუბე-ჩუღურეთი,3,დავით აღმაშენებლის გამზირი # 1-89; 2-146 133,ჩუღურეთი,27,,2,,1,1,2,,None m²,Haedr,4926318,physical,1,False,False,False,1387,2024-12-09 20:22:56,2025-03-12 00:00:14,2,44.793616,41.715045
20669395,88500,2,75.8 m²,დიდუბე-ჩუღურეთი,3,ჩაჩავას ქუჩა 2,დიღმის მასივი,24,5,3,2,1,6,10,2,16 m²,გიორგი,5346761,physical,1,False,False,False,62,2025-03-04 22:42:35,2025-03-12 00:00:14,2,44.774896,41.77562
20459150,72000,2,51 m²,ძველი თბილისი,6,ვ. გორგასალის ქ. 105,ორთაჭალა,57,7,2,1,1,5,19,,None m²,მარიამი,5596944,physical,1,False,False,False,27,2025-02-12 13:09:46,2025-03-12 00:00:14,2,44.822615,41.6838
15263456,125000,2,74.2 m²,დიდუბე-ჩუღურეთი,3,ეთერ ბოცვაძის ქუჩა N 10,დიღმის მასივი,24,1,3,2,1,6,9,1,2.5 m²,მესაკუთრე,4080251,physical,1,False,False,False,10785,2023-05-31 22:21:54,2025-03-12 00:00:14,2,44.774485,41.759584
20669395,88500,2,75.8 m²,დიდუბე-ჩუღურეთი,3,ჩაჩავას ქუჩა 2,დიღმის მასივი,24,5,3,2,1,6,10,2,16 m²,გიორგი,5346761,physical,1,False,False,False,62,2025-03-04 22:42:35,2025-03-12 00:00:14,2,44.774896,41.77562
20483155,52140,2,47.4 m²,ვაკე-საბურთალო,4,ბობ უოლშის ქუჩა 10,დიღომი 1-9,30,7,2,1,1,7,8,,None m²,მარი,4458703,physical,4,False,False,False,90,2025-02-14 12:10:46,2025-03-12 00:00:14,2,44.779444,41.790322
20296732,96000,2,80 m²,ვაკე-საბურთალო,4,ხატაეთის ქ. 39,დიდი დიღომი,29,1,3,,1,1,8,2,2 m²,ელისო,2045100,physical,1,False,False,False,134,2025-01-26 17:26:19,2025-03-12 00:00:14,2,44.756537,41.780005
19527726,110000,2,60 m²,ვაკე-საბურთალო,4,მიცკევიჩის ქ. 56,საბურთალო,47,2,2,1,1,2,9,1,10 m²,ანი,5499529,physical,3,False,False,False,665,2024-10-23 13:43:52,2025-03-12 00:00:14,2,44.76555,41.724367
20686191,87700,2,66 m²,ძველი თბილისი,6,ბ. კალანდაძის ქ. ,ორთაჭალა,57,5,2,1,1,5,8,1,12 m²,თამუნა,2304109,physical,3,False,False,False,9,2025-03-06 13:44:53,2025-03-12 00:00:14,2,44.82188,41.681069
20681959,52000,2,53 m²,ისანი-სამგორი,5,დავითაიას ქუჩა ,ვაზისუბანი,51,5,2,1,1,9,12,1,6 m²,ნიკა,4104088,physical,4,False,False,False,53,2025-03-05 22:36:43,2025-03-12 00:00:14,2,44.849809,41.702375
19494427,96000,2,67 m²,დიდუბე-ჩუღურეთი,3,დადიანი ც. ქ. 141,ჩუღურეთი,27,2,2,1,1,2,9,2,2 m²,Irakli,882215,physical,1,False,False,False,805,2024-10-19 10:54:45,2025-03-12 00:00:14,2,44.796961,41.734798
19346754,65000,2,52.23 m²,ვაკე-საბურთალო,4,დემეტრე თავდადებულის ქუჩა 38გ,დიდი დიღომი,29,1,2,1,1,3,16,1,5 m²,.,4469819,physical,3,False,False,False,561,2024-10-02 09:38:32,2025-03-12 00:00:14,2,44.749515,41.795669
20575838,95000,2,60 m²,ვაკე-საბურთალო,4,ცინცაძე ს. ქ. 53,საბურთალო,47,7,2,1,1,7,11,1,7 m²,",",3006741,physical,3,False,False,False,637,2025-02-23 17:14:42,2025-03-12 00:00:14,3,44.763111,41.721281
20165241,58000,2,38 m²,გლდანი-ნაძალადევი,1,ხიზაბავრას ქ. 3,გლდანი,2,1,1,,1,11,12,,None m²,ნინო,3259396,physical,1,False,False,False,322,2025-01-10 14:13:54,2025-03-12 00:00:14,2,44.80893,41.791459
20743087,70500,2,54 m²,ისანი-სამგორი,5,მ. გახოკიძის ქ. 8ბ,ვარკეთილი,52,1,2,1,1,10,10,,54 m²,ბექა,4312002,physical,2,False,False,False,1,2025-03-11 22:22:39,2025-03-12 00:00:14,2,44.891316,41.690063
18548243,130000,2,65 m²,ვაკე-საბურთალო,4,საირმის ქ. 43,საბურთალო,47,1,2,1,1,5,10,1,4 m²,ლევანი,2378428,physical,1,False,False,False,1836,2024-06-13 10:49:56,2025-03-12 00:00:14,2,44.761889,41.722596
20459150,72000,2,51 m²,ძველი თბილისი,6,ვ. გორგასალის ქ. 105,ორთაჭალა,57,7,2,1,1,5,19,,None m²,მარიამი,5596944,physical,1,False,False,False,27,2025-02-12 13:09:46,2025-03-12 00:00:14,2,44.822615,41.6838
20176482,93100,2,49 m²,ვაკე-საბურთალო,4,ლეო კვაჭაძის ქუჩა 19,ლისი,43,7,2,1,1,3,4,1,9 m²,Nata,3338667,physical,1,False,False,False,129,2025-01-11 19:19:06,2025-03-12 00:00:14,2,44.725793,41.742411
20743287,98280,2,54 m²,ვაკე-საბურთალო,4,ა. პოლიტკოვსკაიას ქუჩა (ჯიქია) 50,საბურთალო,47,1,3,2,1,7,7,,None m²,ბექა,3185077,physical,1,False,False,False,3,2025-03-11 23:57:43,2025-03-11 23:57:45,2,44.701633,41.721393
19390055,68100,2,60 m²,ისანი-სამგორი,5,ქინძმარაულის II-შესახვევი ,სამგორი,59,1,3,2,1,10,10,1,4 m²,როკსანა,3302153,physical,3,False,False,False,713,2024-10-07 16:15:49,2025-03-12 00:00:14,2,44.888388,41.67444
20242838,61000,2,45 m²,ვაკე-საბურთალო,4,დემეტრე თავდადებულის ქუჩა 38გ,დიდი დიღომი,29,1,2,1,1,10,11,1,5 m²,ანა,4662637,physical,3,False,False,False,194,2025-01-20 17:15:41,2025-03-12 00:00:14,2,44.749515,41.795669
18189946,106000,2,56 m²,ვაკე-საბურთალო,4,ა. პოლიტკოვსკაიას ქუჩა (ჯიქია) ,საბურთალო,47,1,2,1,1,7,14,1,None m²,dato,3421902,physical,4,False,False,False,941,2024-04-25 01:27:52,2025-03-11 23:16:19,2,44.714341,41.719854
18189946,106000,2,56 m²,ვაკე-საბურთალო,4,ა. პოლიტკოვსკაიას ქუჩა (ჯიქია) ,საბურთალო,47,1,2,1,1,7,14,1,None m²,dato,3421902,physical,4,False,False,False,941,2024-04-25 01:27:52,2025-03-11 23:16:19,2,44.714341,41.719854
20689328,64000,2,72.3 m²,ვაკე-საბურთალო,4,დემეტრე თავდადებულის ქუჩა 37,დიდი დიღომი,29,5,3,2,1,10,10,,12.5 m²,Andro,3444742,physical,1,False,False,False,554,2025-03-06 15:54:11,2025-03-11 23:00:38,2,44.748921,41.795883
20743142,85000,2,65 m²,ვაკე-საბურთალო,4,დიდი დიღომი - II მ/რ 1,დიდი დიღომი,29,1,2,1,1,12,12,1,10 m²,ნინო,3244603,physical,1,False,False,False,5,2025-03-11 22:47:02,2025-03-11 22:47:03,2,44.747696,41.795712
20743083,58000,2,54.6 m²,ისანი-სამგორი,5,შანდორ პეტეფის ქუჩა 44,ვაზისუბანი,51,7,2,1,1,9,16,1,8 m²,დათო,4586624,physical,1,False,False,False,6,2025-03-11 22:21:34,2025-03-11 22:21:35,2,44.856091,41.698948
19816444,108000,2,76.2 m²,გლდანი-ნაძალადევი,1,მარსელის ქ. 4,გლდანი,2,1,3,2,1,7,20,1,9 m²,იმედა,3156080,physical,1,False,False,False,412,2024-11-24 11:10:02,2025-03-11 22:44:39,2,44.806185,41.793548
20316967,119000,2,100 m²,ვაკე-საბურთალო,4,"ალექსიძე მერაბის ქუჩა კორპუსი #1, 2, 3, 4 ",საბურთალო,47,2,3,2,2,14,15,,None m²,დატო,3421902,physical,4,False,False,False,741,2025-01-28 17:39:11,2025-03-11 23:16:18,2,44.781988,41.716992
20743180,63940,2,55.6 m²,ისანი-სამგორი,5,შანდორ პეტეფის ქუჩა 44,ვაზისუბანი,51,7,2,1,1,12,16,1,3 m²,ვაჟა,4500907,physical,1,False,False,False,13,2025-03-11 23:04:10,2025-03-11 23:04:12,2,44.856091,41.698948
20543618,95000,2,64 m²,ვაკე-საბურთალო,4,ამბერკ ტაბიძის ქუჩა 41,ლისი,43,,3,2,,5,12,,None m²,Სალომე,2068443,physical,2,False,False,False,87,2025-02-20 11:40:26,2025-03-11 22:17:30,2,44.727991,41.742405
18931247,90000,2,52.5 m²,დიდუბე-ჩუღურეთი,3,თევდორე მღვდლის ქ. 51,დიდუბე,23,1,2,1,1,10,15,1,2 m²,ლია,2420494,physical,1,False,False,False,761,2024-08-06 11:27:39,2025-03-11 22:00:20,2,44.788141,41.732326
20742962,100010,2,46 m²,ვაკე-საბურთალო,4,თ. ნადარეიშვილის ქ. 8,საბურთალო,47,1,2,1,1,10,10,1,6 m²,ქეთი,4821282,physical,1,False,False,False,2,2025-03-11 21:37:07,2025-03-11 21:37:09,2,44.7449,41.730407
20742917,82000,2,63 m²,ვაკე-საბურთალო,4,ვეფხისტყაოსნის ქ. 16,დიდი დიღომი,29,,2,1,,12,15,,None m²,ლუკა,5615700,physical,6,False,False,False,1,2025-03-11 21:20:56,2025-03-11 21:20:57,2,44.765697,41.786575
20743030,98000,2,70 m²,დიდუბე-ჩუღურეთი,3,მირცხულავას ქუჩა ,დიდუბე,23,5,3,2,2,4,18,2,8 m²,მიშა,4901230,physical,2,False,False,False,0,2025-03-11 21:59:22,2025-03-11 21:59:24,2,44.774358,41.745232
20743019,98000,2,70 m²,დიდუბე-ჩუღურეთი,3,მირცხულავას ქუჩა ,დიდუბე,23,5,3,2,2,4,18,2,8 m²,მიშა,4901230,physical,2,False,False,False,1,2025-03-11 21:56:24,2025-03-11 21:56:26,2,44.774358,41.745232
20397426,115000,2,65 m²,დიდუბე-ჩუღურეთი,3,კედიას ქუჩა 6,დიდუბე,23,1,3,2,1,15,16,1,8 m²,ირმა,700631,physical,2,False,False,False,63,2025-02-05 23:03:01,2025-03-11 21:16:29,2,44.787294,41.732195
20742913,82000,2,63 m²,ვაკე-საბურთალო,4,ვეფხისტყაოსნის ქ. 16,დიდი დიღომი,29,1,2,1,1,12,15,,None m²,ზურა,5615706,physical,6,False,False,False,0,2025-03-11 21:19:59,2025-03-11 21:20:00,2,44.765697,41.786575
20742876,84500,2,63 m²,ვაკე-საბურთალო,4,ვეფხისტყაოსნის ქ. 16,დიდი დიღომი,29,1,3,2,1,13,15,,None m²,ზურა,5615706,physical,6,False,False,False,1,2025-03-11 21:07:55,2025-03-11 21:07:57,2,44.765697,41.786575
20742873,84500,2,63 m²,ვაკე-საბურთალო,4,ვეფხისტყაოსნის ქ. 16,დიდი დიღომი,29,1,3,2,,13,15,,None m²,ლუკა,5615700,physical,6,False,False,False,2,2025-03-11 21:07:26,2025-03-11 21:07:27,2,44.765697,41.786575
20358373,92000,2,67 m²,გლდანი-ნაძალადევი,1,ნანეიშვილი ვლ. ქუჩა 23ბ,გლდანი,2,1,3,2,,7,10,1,4 m²,ირმა,700631,physical,2,False,False,False,150,2025-02-01 21:18:24,2025-03-11 21:16:29,2,44.828416,41.79391
20742897,77220,2,59.4 m²,დიდუბე-ჩუღურეთი,3,ლუბლიანას ქ. ,დიღმის მასივი,24,6,2,1,1,2,12,1,6 m²,თათა,4450267,physical,2,False,False,False,5,2025-03-11 21:13:47,2025-03-11 21:13:48,2,44.774834,41.775159
20742851,89000,2,56.3 m²,გლდანი-ნაძალადევი,1,ხიზაბავრას ქ. ,გლდანი,2,1,2,1,1,5,12,2,6 m²,ნინი,528839,physical,1,False,False,False,2,2025-03-11 20:59:58,2025-03-11 21:00:00,2,44.80893,41.791459
20422584,95000,2,53 m²,ვაკე-საბურთალო,4,ა. ვარაზის ქ. 28,ლისი,43,1,2,1,1,2,8,1,8 m²,დიანა,661288,physical,1,False,False,False,240,2025-02-07 23:52:45,2025-03-11 21:00:14,2,44.717774,41.737111
20742768,112000,2,86 m²,ვაკე-საბურთალო,4,დემეტრე თავდადებულის ქუჩა 37,დიდი დიღომი,29,1,4,3,1,2,8,2,2 m²,Apartments in Dighomi,3631323,physical,1,False,False,False,2,2025-03-11 20:25:28,2025-03-11 20:25:30,2,44.748921,41.795883
20742803,62000,2,46 m²,ვაკე-საბურთალო,4,დავარის ქ. 66,დიდი დიღომი,29,1,2,1,1,4,7,,None m²,ზურა,5615706,physical,6,False,False,False,7,2025-03-11 20:38:24,2025-03-11 20:38:25,2,44.749949,41.785892
20742778,64500,2,45.6 m²,ვაკე-საბურთალო,4,არჩილ მეფის ქ. 8,დიდი დიღომი,29,1,2,1,1,12,13,1,5 m²,თიკო,5305426,physical,3,False,False,False,2,2025-03-11 20:28:56,2025-03-11 20:28:58,2,44.738916,41.792891
20742786,61850,2,46 m²,ვაკე-საბურთალო,4,დავარის ქ. 66,დიდი დიღომი,29,1,2,1,,4,7,,None m²,ლუკა,5615700,physical,6,False,False,False,3,2025-03-11 20:31:10,2025-03-11 20:31:12,2,44.749949,41.785892
20742752,75000,2,53 m²,ვაკე-საბურთალო,4,ნესტან-დარეჯანის ქ. 12,დიდი დიღომი,29,1,3,2,,2,7,,None m²,ზურა,5615706,physical,6,False,False,False,3,2025-03-11 20:20:35,2025-03-11 20:20:36,2,44.749497,41.783909
20742691,75000,2,53 m²,ვაკე-საბურთალო,4,ნესტან-დარეჯანის ქ. 12,დიდი დიღომი,29,1,3,2,1,2,7,,None m²,ლუკა,5615700,physical,6,False,False,False,2,2025-03-11 19:58:11,2025-03-11 19:58:13,2,44.749497,41.783909
20742711,86000,2,68 m²,ისანი-სამგორი,5,"კახეთის გზატკეცილი. #1, 3ა, 8, 17-23, 34-50 ",სამგორი,59,,3,1,,2,9,,None m²,ირაკლი,75335,physical,1,False,False,False,1,2025-03-11 20:03:59,2025-03-11 20:04:00,2,44.867766,41.684753
20742740,48000,2,45.7 m²,ისანი-სამგორი,5,ქინძმარაულის II-შესახვევი 5,სამგორი,59,7,2,1,1,6,12,1,6.8 m²,გიორგი,5611719,physical,1,False,False,False,5,2025-03-11 20:14:40,2025-03-11 20:14:42,2,44.887041,41.675062
20742633,73000,2,53 m²,ვაკე-საბურთალო,4,ნესტან-დარეჯანის ქ. 12,დიდი დიღომი,29,1,2,1,,5,6,1,1.4 m²,ზურა,5615706,physical,6,False,False,False,3,2025-03-11 19:43:04,2025-03-11 19:43:06,2,44.749497,41.783909
20662908,65000,2,75 m²,ვაკე-საბურთალო,4,დემეტრე თავდადებულის ქუჩა 40,დიდი დიღომი,29,6,3,,,15,15,1,9 m²,ანა,4926882,physical,5,False,False,False,11,2025-03-04 15:32:26,2025-03-11 20:00:19,2,44.751428,41.795978
20742611,45000,2,30 m²,გლდანი-ნაძალადევი,1,ხიზაბავრას ქ. 3,გლდანი,2,1,1,,1,8,12,1,3 m²,ნონა,2355458,physical,1,False,False,False,9,2025-03-11 19:36:59,2025-03-11 19:37:00,2,44.801517,41.693803
20742581,73000,2,53 m²,ვაკე-საბურთალო,4,ნესტან-დარეჯანის ქ. 12,დიდი დიღომი,29,,2,1,1,5,6,,None m²,ლუკა,5615700,physical,6,False,False,False,2,2025-03-11 19:29:38,2025-03-11 19:29:40,2,44.749497,41.783909
20742407,60500,2,55 m²,ვაკე-საბურთალო,4,ფატმანის ქ. ,დიდი დიღომი,29,6,3,2,,2,5,,None m²,ნიკა,5615502,physical,3,False,False,False,12,2025-03-11 19:02:52,2025-03-11 19:02:54,2,44.756481,41.782595
20295838,81900,2,58.5 m²,ვაკე-საბურთალო,4,ასმათის ქ. 58,დიდი დიღომი,29,2,3,2,1,3,9,1,3.8 m²,ნუცა,1918596,physical,5,False,False,False,491,2025-01-26 15:01:14,2025-03-11 19:00:44,2,44.752108,41.785057
20742485,81000,2,67.5 m²,დიდუბე-ჩუღურეთი,3,ნ. ბოხუას ქ. 10,დიღმის მასივი,24,5,3,2,1,11,16,1,8 m²,თეონა,3106177,physical,1,False,False,False,13,2025-03-11 19:12:34,2025-03-11 19:12:35,2,44.77903,41.779384
20742589,51000,2,37 m²,ისანი-სამგორი,5,ისნის ქუჩა 342,ისანი,53,,2,1,,14,18,,None m²,ლევანი,3684296,physical,3,False,False,False,10,2025-03-11 19:31:18,2025-03-11 19:31:19,2,44.840891,41.68655
20695557,97500,2,53 m²,ვაკე-საბურთალო,4,ა. ვარაზის ქ. 17,ლისი,43,1,2,1,1,3,10,1,9 m²,გიორგი,659469,physical,3,False,False,False,47,2025-03-07 01:44:58,2025-03-11 19:00:44,2,44.722612,41.732886
20742201,113900,2,67 m²,ვაკე-საბურთალო,4,წმ. მოწამე ვასილისკოს ქ. 4,საბურთალო,47,1,2,1,1,5,7,1,7 m²,ლევან,4206455,physical,1,False,False,False,2,2025-03-11 18:50:27,2025-03-11 18:50:29,2,44.801517,41.693803
20742157,62500,2,52 m²,ვაკე-საბურთალო,4,გიორგი ბრწყინვალეს ქ. 54,დიდი დიღომი,29,1,2,1,1,14,16,1,8 m²,ნათია,2112138,physical,3,False,False,False,4,2025-03-11 18:48:31,2025-03-11 18:48:32,2,44.75182,41.790069
20742006,82000,2,58 m²,ვაკე-საბურთალო,4,შ. ნუცუბიძის ქ. ,საბურთალო,47,,2,1,,26,26,,None m²,გიორგი,3028949,physical,5,False,False,False,6,2025-03-11 18:41:52,2025-03-11 18:41:53,2,44.73791,41.72745
20742135,61800,2,45.4 m²,ვაკე-საბურთალო,4,პ. იბერის ქ. 30,დიდი დიღომი,29,1,2,1,,2,10,,None m²,ზურა,5615706,physical,6,False,False,False,3,2025-03-11 18:47:49,2025-03-11 18:47:50,2,44.754462,41.795864
20742151,61800,2,45.4 m²,ვაკე-საბურთალო,4,პ. იბერის ქ. 30,დიდი დიღომი,29,1,2,1,1,2,10,,None m²,ლუკა,5615700,physical,6,False,False,False,2,2025-03-11 18:48:18,2025-03-11 18:48:19,2,44.754462,41.795864
20741902,119500,2,87 m²,ვაკე-საბურთალო,4,გიორგი ბრწყინვალეს ქ. 56,დიდი დიღომი,29,1,4,2,1,10,16,,None m²,ალექსანდრე,1918427,physical,2,False,False,False,2,2025-03-11 18:37:22,2025-03-11 18:37:24,2,44.759855,41.788711
20643661,85000,2,60 m²,გლდანი-ნაძალადევი,1,ქერჩის ქ. 1,გლდანი,2,1,2,,,5,11,,None m²,ზურა,5608682,physical,1,False,False,False,99,2025-03-01 23:21:48,2025-03-11 18:35:18,2,44.801891,41.788861
20741954,70000,2,56 m²,ისანი-სამგორი,5,"კახეთის გზატკეცილი. #1, 3ა, 8, 17-23, 34-50 33ა",სამგორი,59,1,3,,1,14,15,,None m²,ზურა,5554254,physical,1,False,False,False,7,2025-03-11 18:39:48,2025-03-11 18:39:49,2,44.871248,41.683706
20741763,109000,2,77.1 m²,ვაკე-საბურთალო,4,გიორგი ბრწყინვალეს ქ. 56,დიდი დიღომი,29,1,3,2,1,14,16,,None m²,ალექსანდრე,1918427,physical,2,False,False,False,3,2025-03-11 18:31:32,2025-03-11 18:31:34,2,44.759855,41.788711
20741740,69400,2,69.4 m²,ვაკე-საბურთალო,4,მელიქ-სურხავის II შეს. 13,დიდი დიღომი,29,,2,1,1,10,16,1,11 m²,გიორგი,5571452,physical,1,False,False,False,4,2025-03-11 18:30:41,2025-03-11 18:30:42,2,44.766125,41.785795
20741788,103000,2,67 m²,ვაკე-საბურთალო,4,ა. პოლიტკოვსკაიას ქუჩა (ჯიქია) 56,საბურთალო,47,1,2,1,1,10,13,,None m²,ანა,4281646,physical,6,False,False,False,2,2025-03-11 18:32:45,2025-03-11 18:32:46,2,44.70129,41.721731
20740270,60000,2,47.5 m²,ვაკე-საბურთალო,4,თავისუფლების ქ. 2,დიდი დიღომი,29,1,2,1,1,2,6,,None m²,ნენსი,2308084,physical,2,False,False,False,9,2025-03-11 17:35:36,2025-03-11 17:35:38,2,44.743007,41.665874
18543738,82000,2,56.5 m²,ისანი-სამგორი,5,გულიას ქუჩა ,ორთაჭალა,57,1,2,1,1,6,16,1,6 m²,სიმონ,5417449,physical,1,False,False,False,590,2024-06-12 15:18:52,2025-03-11 17:41:09,2,44.831832,41.675932
20576442,74000,2,71.9 m²,ვაკე-საბურთალო,4,ბობ უოლშის ქუჩა 26,დიღომი 1-9,30,6,3,,1,1,4,0,None m²,ნიკოლოზი,5288219,physical,1,False,False,False,19,2025-02-23 18:51:00,2025-03-11 17:43:15,3,44.781719,41.796113
20739938,77000,2,73 m²,ვაკე-საბურთალო,4,დემეტრე თავდადებულის ქუჩა 36,დიდი დიღომი,29,7,3,2,1,3,12,1,4 m²,marina,521742,physical,2,False,False,False,0,2025-03-11 17:24:33,2025-03-11 17:24:34,2,44.751428,41.795978
20739863,94500,2,62 m²,ვაკე-საბურთალო,4,მარშალი გელოვანი გამზირი ,საბურთალო,47,1,2,1,1,6,13,2,8 m²,გურამი,2389628,physical,3,False,False,False,6,2025-03-11 17:22:09,2025-03-11 17:22:11,2,44.769566,41.752838
20739701,130000,2,80 m²,ვაკე-საბურთალო,4,ვეფხისტყაოსნის ქ. 6,დიდი დიღომი,29,1,3,2,1,6,20,2,12 m²,გიორგი,3214784,physical,1,False,False,False,0,2025-03-11 17:16:51,2025-03-11 17:16:52,2,44.766545,41.786561
20623882,112000,2,90 m²,ისანი-სამგორი,5,გრ. ლორთქიფანიძის ქ. 1,სამგორი,59,1,3,2,1,2,12,2,5 m²,ომარი,2136099,physical,2,False,False,False,26,2025-02-27 18:53:42,2025-03-11 17:00:52,2,44.889751,41.676987
20450798,94000,2,71 m²,დიდუბე-ჩუღურეთი,3,მირცხულავას ქუჩა ,დიდუბე,23,5,3,2,1,18,22,1,4 m²,ნიკუშა,5330904,physical,5,False,False,False,159,2025-02-11 15:38:45,2025-03-11 16:46:54,2,44.774358,41.745232
20739521,44000,2,41 m²,ვაკე-საბურთალო,4,ასმათის ქ. 21,დიდი დიღომი,29,7,2,1,1,6,12,1,3 m²,ლევანი,2042154,physical,1,False,False,False,17,2025-03-11 17:11:37,2025-03-11 17:11:39,2,44.75938,41.785004
20739459,97700,2,61.4 m²,ვაკე-საბურთალო,4,მარშალი გელოვანი გამზირი ,საბურთალო,47,1,3,2,1,6,13,2,8 m²,გურამი,2389628,physical,3,False,False,False,10,2025-03-11 17:09:27,2025-03-11 17:09:29,2,44.769566,41.752838
20142176,115000,2,58.31 m²,ვაკე-საბურთალო,4,მინდელის ქუჩა 13,საბურთალო,47,1,2,1,1,14,18,,None m²,N,4798870,physical,4,False,False,False,740,2025-01-07 22:01:46,2025-03-11 16:40:53,2,44.711868,41.724813
20738626,85000,2,47.7 m²,დიდუბე-ჩუღურეთი,3,მირცხულავას ქუჩა ,დიდუბე,23,1,2,1,1,12,20,1,2.3 m²,მ2,1420620,physical,3,False,False,False,1,2025-03-11 16:39:48,2025-03-11 16:39:50,2,44.774358,41.745232
20698538,61000,2,55.5 m²,ისანი-სამგორი,5,შ. პეტეფის ქ. 44,ვარკეთილი,52,,2,1,,15,16,,None m²,ანა,4452270,physical,3,False,False,False,18,2025-03-07 13:14:27,2025-03-11 16:00:47,2,44.856091,41.698948
20246380,93000,2,60 m²,დიდუბე-ჩუღურეთი,3,ლუბლიანას ქ. ,დიღმის მასივი,24,1,3,2,1,1,4,,None m²,ნიკო,2245671,physical,3,False,False,False,450,2025-01-21 10:33:17,2025-03-11 16:00:47,2,44.774834,41.775159
20581611,76000,2,47 m²,ისანი-სამგორი,5,ბერი გაბრიელ სალოსის გამზ. 43,ისანი,53,1,2,1,1,7,12,1,4.7 m²,გურამი,3970643,physical,1,False,False,False,129,2025-02-24 14:33:07,2025-03-11 16:31:12,2,44.864155,41.672684
19329755,126000,2,99.4 m²,ვაკე-საბურთალო,4,დემეტრე თავდადებულის ქუჩა 16ა,დიდი დიღომი,29,1,3,2,2,8,11,1,5 m²,გ,3892959,physical,1,False,False,False,544,2024-09-30 13:12:23,2025-03-11 16:05:25,2,44.749515,41.795669
20696890,56000,2,55.5 m²,ისანი-სამგორი,5,შანდორ პეტეფის ქუჩა 44,ვაზისუბანი,51,,2,1,1,14,16,,None m²,ანა,4452270,physical,3,False,False,False,35,2025-03-07 12:09:21,2025-03-11 16:00:47,2,44.856091,41.698948
20737395,72000,2,65 m²,ვაკე-საბურთალო,4,ვეფხისტყაოსნის ქ. ,დიდი დიღომი,29,,3,2,,1,15,,None m²,ლუკა,5596195,physical,3,False,False,False,7,2025-03-11 15:58:21,2025-03-11 15:58:22,2,44.757697,41.786818
20358702,93000,2,59 m²,ვაკე-საბურთალო,4,ბობ უოლშის ქუჩა ,დიღომი 1-9,30,,3,2,1,6,22,,None m²,Name,4821293,physical,3,False,False,False,40,2025-02-02 00:43:09,2025-03-11 15:28:52,2,44.781719,41.796113
20737262,103000,2,68.8 m²,ძველი თბილისი,6,კრწანისის ქ. 21,კრწანისი,65,1,2,1,1,2,8,2,3 m²,ლაშა,4372649,physical,1,False,False,False,20,2025-03-11 15:53:31,2025-03-11 15:53:33,2,44.818651,41.674842
20736877,88000,2,64 m²,ვაკე-საბურთალო,4,პ. იბერის ქ. ,დიდი დიღომი,29,,3,2,1,3,11,,7 m²,luka,5596195,physical,3,False,False,False,5,2025-03-11 15:41:11,2025-03-11 15:41:12,2,44.755322,41.79198
17543653,65500,2,47.4 m²,ისანი-სამგორი,5,ვ. გორგასალის ქ. ,ორთაჭალა,57,5,1,1,1,12,12,1,1 m²,Lera,4692245,physical,1,False,False,False,334,2024-02-21 20:35:43,2025-03-11 15:31:15,3,44.822615,41.6838
20352752,98000,2,63 m²,ვაკე-საბურთალო,4,შ. ნუცუბიძის ქ. 0,საბურთალო,47,1,3,2,1,5,20,1,6 m²,ჯენი,4100071,physical,4,False,False,False,566,2025-01-31 23:13:22,2025-03-11 15:28:07,2,44.73791,41.72745
19314760,75000,2,52 m²,ვაკე-საბურთალო,4,4000 მესხის ქ. 9,დიდი დიღომი,29,1,2,1,1,9,9,1,4 m²,დავით,971736,physical,2,False,False,False,249,2024-09-27 14:41:37,2025-03-11 15:24:29,2,44.765338,41.784713
19172051,73000,2,75 m²,ისანი-სამგორი,5,ბერი გაბრიელ სალოსის გამზ. ,ისანი,53,5,3,2,1,4,11,2,10 m²,ნანუკა,4824557,physical,5,False,False,False,145,2024-09-10 14:30:38,2025-03-11 15:22:02,2,44.864155,41.672684
20431903,120000,2,69 m²,ძველი თბილისი,6,ვ. გორგასალის ქ. 51,ორთაჭალა,57,7,2,1,2,7,14,1,7 m²,მაკა,1885114,physical,1,False,False,False,38,2025-02-09 20:39:02,2025-03-11 15:24:58,2,44.822615,41.6838
20736408,92000,2,57 m²,ისანი-სამგორი,5,რ. ჰოლბრუკის ქ. 9,ისანი,53,1,2,1,1,15,23,,None m²,ბადრი,5356884,physical,1,False,False,False,14,2025-03-11 15:25:51,2025-03-11 15:25:53,2,44.837928,41.6791
20293175,63000,2,69.24 m²,დიდუბე-ჩუღურეთი,3,ნ. ხოშარაულის ქ. 29,დიდუბე,23,,2,,1,2,29,1,9 m²,გიორგი,421162,physical,1,False,False,False,128,2025-01-25 16:45:25,2025-03-11 14:55:09,3,44.779703,41.732513
18775622,125000,2,81.3 m²,ვაკე-საბურთალო,4,შარტავას ქ. 43,საბურთალო,47,5,3,2,2,8,37,1,6 m²,ლია,3170806,physical,5,False,False,False,110,2024-07-14 16:35:28,2025-03-11 15:20:08,3,44.772387,41.728121
20643824,84000,2,49 m²,დიდუბე-ჩუღურეთი,3,მირცხულავას ქუჩა 9,დიდუბე,23,1,2,1,1,6,16,1,7 m²,დ,626748,physical,2,False,False,False,302,2025-03-02 00:07:27,2025-03-11 14:00:18,2,44.774358,41.745232
20734531,68000,2,47 m²,ვაკე-საბურთალო,4,ფარნავაზ მეფის გამზ. ,დიდი დიღომი,29,1,2,1,2,4,12,,None m²,ააა,2396640,physical,3,False,False,False,6,2025-03-11 13:59:39,2025-03-11 13:59:40,2,44.764876,41.792558
20734658,59000,2,45 m²,ვაკე-საბურთალო,4,დიღმის ჭალა 14,დიღომი 1-9,30,5,2,1,1,7,14,1,5 m²,პაატა,4250742,physical,1,False,False,False,10,2025-03-11 14:05:53,2025-03-11 14:05:55,2,44.778016,41.795544
20456238,83000,2,53 m²,ძველი თბილისი,6,ნადიკვარის დას; 2-ქ ,ორთაჭალა,57,1,2,1,1,1,8,1,8 m²,ვაკა,5390903,physical,1,False,False,False,335,2025-02-11 21:29:29,2025-03-11 14:52:42,2,44.822889,41.680949
20734171,94000,2,59.4 m²,ვაკე-საბურთალო,4,შ. ნუცუბიძის ქ. 125,საბურთალო,47,7,2,1,1,7,25,,None m²,ანა,3825902,physical,3,False,False,False,6,2025-03-11 13:45:18,2025-03-11 13:45:19,2,44.73331,41.727269
19925958,84087.5,2,54.25 m²,ვაკე-საბურთალო,4,მარშალი გელოვანი გამზირი ,საბურთალო,47,7,2,1,1,3,10,1,4.11 m²,A,3304467,physical,3,False,False,False,439,2024-12-06 10:13:55,2025-03-11 13:54:31,2,44.769566,41.752838
20733157,58000,2,56 m²,ისანი-სამგორი,5,ბერი გაბრიელ სალოსის VI შეს. 1,ისანი,53,7,2,1,1,2,9,2,6.8 m²,temo,3441354,physical,1,False,False,False,21,2025-03-11 13:03:48,2025-03-11 13:03:50,2,44.87164,41.67164
20733442,55000,2,32 m²,ვაკე-საბურთალო,4,ა. პოლიტკოვსკაიას ქუჩა (ჯიქია) 2ბ,საბურთალო,47,7,1,1,1,4,14,1,6.5 m²,ნინო,5615396,physical,1,False,False,False,55,2025-03-11 13:15:23,2025-03-11 13:15:25,2,44.716931,41.719621
20733770,92800,2,64 m²,დიდუბე-ჩუღურეთი,3,აღმაშენებლის გამზ. 2ა,ჩუღურეთი,27,3,2,1,1,2,9,1,9.5 m²,ანი,2158701,physical,1,False,False,False,13,2025-03-11 13:28:37,2025-03-11 13:28:39,2,44.799936,41.70623
20654851,124500,2,83 m²,დიდუბე-ჩუღურეთი,3,ბელიაშვილი ქუჩა 68,დიღმის მასივი,24,,3,2,1,17,17,,None m²,ლუკა,5581873,physical,5,False,False,False,18,2025-03-03 18:10:51,2025-03-11 13:16:45,2,44.779277,41.77138
20733051,45000,2,50 m²,ვაკე-საბურთალო,4,დემეტრე თავდადებულის ქუჩა 21,დიდი დიღომი,29,7,2,1,1,2,11,1,5 m²,მიხეილი,647793,physical,1,False,False,False,13,2025-03-11 13:00:03,2025-03-11 13:00:04,3,44.757615,41.797192
20165135,87000,2,57 m²,ისანი-სამგორი,5,ჯავახეთის ქ. 1,ვარკეთილი,52,1,2,1,1,15,20,1,6 m²,სოფო,4007834,physical,3,False,False,False,352,2025-01-10 14:06:31,2025-03-11 13:02:46,2,44.872176,41.679542
19970324,70000,2,56 m²,ისანი-სამგორი,5,"კახეთის გზატკეცილი. #1ა, 1ბ ",სამგორი,59,1,3,2,1,14,15,1,2 m²,გვანცა,2027627,physical,3,False,False,False,96,2024-12-11 12:49:34,2025-03-11 12:36:59,2,44.859279,41.686632
19037020,65000,2,57 m²,ძველი თბილისი,6,ბერძენის ქ. ,ორთაჭალა,57,5,2,1,1,2,6,1,5.5 m²,ნ,3224964,physical,2,False,False,False,907,2024-08-21 13:43:21,2025-03-11 12:26:34,2,44.821822,41.683071
20450648,80000,2,55 m²,ძველი თბილისი,6,ვ.გორგასლის ქუჩა,ორთაჭალა,57,5,2,1,1,12,20,1,5 m²,ალიონა,1161390,physical,2,False,False,False,53,2025-02-11 15:34:06,2025-03-11 12:40:40,2,44.830405,41.675654
